City_ID,City,Lat,Lng,Max Temp,Humidity,Cloudiness,Wind Speed,Country,Date
0,kavieng,-2.5744,150.7967,28.12,78,35,3.96,PG,1693953252
1,gaspe,48.8334,-64.4819,24.12,60,0,2.06,CA,1693953466
2,qaqortoq,60.7167,-46.0333,6.29,99,100,2.22,GL,1693953219
3,adamstown,-25.066,-130.1015,19.65,85,100,7.76,PN,1693953208
4,salalah,17.0151,54.0924,26.05,89,20,1.54,OM,1693953466
5,ilulissat,69.2167,-51.1,7.01,87,75,0.51,GL,1693953215
6,bethel,41.3712,-73.414,30.47,76,100,1.99,US,1693953211
7,sidney,-33.8679,151.2073,15.77,59,0,2.57,AU,1693953196
8,kavaratti,10.5669,72.642,27.59,79,98,7.0,IN,1693953236
9,bereznik,62.8551,42.7072,14.27,86,99,5.85,RU,1693953467
10,punta del este,-34.9667,-54.95,8.26,72,75,4.63,UY,1693953216
11,ancud,-41.8697,-73.8203,8.82,91,100,9.25,CL,1693953196
12,port-aux-francais,-49.35,70.2167,2.71,80,99,15.15,TF,1693953209
13,livingston,55.9029,-3.5226,14.56,94,100,4.12,GB,1693953262
14,lebu,-37.6167,-73.65,10.8,97,100,6.57,CL,1693953233
15,west island,-12.1568,96.8225,24.99,78,75,7.72,CC,1693953217
16,hithadhoo,-0.6,73.0833,28.04,74,69,6.09,MV,1693953227
17,albany,42.6001,-73.9662,28.65,74,77,1.81,US,1693953382
18,moyale,3.5167,39.0584,22.0,51,84,2.48,KE,1693953467
19,east london,-33.0153,27.9116,14.14,57,35,8.79,ZA,1693952954
20,waitangi,-43.9535,-176.5597,12.12,84,100,2.24,NZ,1693953212
21,najaf,31.9985,44.3398,35.88,12,0,3.6,IQ,1693953366
22,talnakh,69.4865,88.3972,2.34,81,28,0.14,RU,1693953224
23,hawaiian paradise park,19.5933,-154.9731,29.46,73,75,5.14,US,1693953223
24,punta arenas,-53.15,-70.9167,2.55,72,57,5.28,CL,1693953025
25,tazovsky,67.4667,78.7,3.99,89,12,2.42,RU,1693953269
26,coronel suarez,-37.4547,-61.9334,7.15,61,96,3.84,AR,1693953447
27,jamestown,42.097,-79.2353,28.8,57,0,3.09,US,1693953138
28,san antonio de pale,-1.4014,5.6325,23.21,88,60,5.67,GQ,1693953217
29,haiku-pauwela,20.9219,-156.3051,30.01,59,40,9.26,US,1693953229
30,blackmans bay,-43.0167,147.3167,10.94,67,96,3.97,AU,1693953209
31,puerto ayora,-0.7393,-90.3518,26.98,86,49,2.24,EC,1693953208
32,feijo,-8.1642,-70.3536,28.71,57,97,1.04,BR,1693953468
33,znamensk,48.5842,45.7338,18.4,61,100,6.87,RU,1693953469
34,kutum,14.2,24.6667,23.73,58,99,6.96,SD,1693953469
35,manavalakurichi,8.1333,77.3,24.88,89,100,4.82,IN,1693953469
36,bratsk,56.1325,101.6142,13.27,95,100,2.81,RU,1693953469
37,hamilton,39.1834,-84.5333,32.0,62,40,6.17,US,1693952952
38,al muwayh,22.4333,41.7583,27.17,10,10,3.21,SA,1693953262
39,minas de marcona,-15.2119,-75.1103,14.48,79,73,5.07,PE,1693953213
40,manta,-0.95,-80.7333,28.88,61,40,3.6,EC,1693953469
41,hammerfest,70.6634,23.6821,7.25,81,75,8.23,NO,1693953258
42,iqaluit,63.7506,-68.5145,4.85,80,100,5.14,CA,1693952968
43,hami,42.8,93.45,21.24,43,100,7.95,CN,1693953218
44,ribeira grande,38.5167,-28.7,22.65,76,57,4.02,PT,1693953229
45,grytviken,-54.2811,-36.5092,-3.63,81,42,5.0,GS,1693953213
46,edinburgh of the seven seas,-37.0676,-12.3116,14.2,86,100,14.66,SH,1693953209
47,olonkinbyen,70.9221,-8.7187,6.32,91,75,9.39,SJ,1693953223
48,salinopolis,-0.6136,-47.3561,27.1,77,32,6.03,BR,1693953242
49,cannonvale,-20.2833,148.7,22.66,69,3,4.27,AU,1693953243
50,papatowai,-46.5619,169.4708,15.29,60,80,1.53,NZ,1693953211
51,lerwick,60.1545,-1.1494,12.0,78,8,3.59,GB,1693953248
52,hasaki,35.7333,140.8333,26.84,82,100,3.84,JP,1693953239
53,lompoc,34.6391,-120.4579,27.08,76,100,4.12,US,1693953262
54,novyy urgal,51.0736,132.5642,9.98,73,89,0.68,RU,1693953471
55,lagoa,39.05,-27.9833,21.82,75,11,12.28,PT,1693953274
56,puerto natales,-51.7236,-72.4875,-0.93,82,6,2.34,CL,1693953214
57,vadso,70.0744,29.7487,6.49,81,20,5.14,NO,1693953219
58,college,64.8569,-147.8028,14.18,78,100,3.6,US,1693953218
59,selfoss,63.9331,-20.9971,11.14,97,100,5.88,IS,1693953471
60,georgetown,5.4112,100.3354,26.64,97,20,1.03,MY,1693953022
61,torres,-29.3353,-49.7269,14.35,73,60,3.45,BR,1693953471
62,kudahuvadhoo,2.6708,72.8944,27.63,76,56,4.82,MV,1693953255
63,hartlepool,54.6861,-1.2125,16.82,86,7,2.0,GB,1693953471
64,thompson,55.7435,-97.8558,14.09,51,75,4.63,CA,1693953215
65,dudinka,69.4058,86.1778,2.57,81,77,2.01,RU,1693953139
66,york,40.1254,-77.0,33.16,53,59,2.14,US,1693953472
67,alenquer,-1.9417,-54.7383,30.92,45,44,1.06,BR,1693953189
68,bakaly,55.1789,53.8028,15.88,66,93,0.86,RU,1693953472
69,port augusta,-32.5,137.7667,15.95,44,0,5.82,AU,1693953472
70,kapuskasing,49.4169,-82.4331,33.05,43,40,7.72,CA,1693953472
71,yamba,-5.9,22.3,22.57,81,21,1.05,CD,1693953472
72,lac-brome,45.2168,-72.5158,29.33,93,7,1.06,CA,1693953472
73,invercargill,-46.4,168.35,12.79,89,61,2.24,NZ,1693953210
74,badger,64.8,-147.5333,14.14,75,75,3.6,US,1693953174
75,westport,41.1415,-73.3579,32.02,71,0,3.6,US,1693953472
76,ambon,-3.6954,128.1814,27.71,95,40,2.06,ID,1693953258
77,inirida,3.8653,-67.9239,25.79,77,52,0.88,CO,1693953473
78,bredasdorp,-34.5322,20.0403,6.44,82,4,3.96,ZA,1693953208
79,utrik,11.2278,169.8474,28.45,74,97,5.71,MH,1693953218
80,bel ombre,-4.6167,55.4167,26.91,74,40,8.75,SC,1693953244
81,bubaque,11.2833,-15.8333,26.76,81,100,9.71,GW,1693953473
82,vorgashor,67.5833,63.95,8.14,68,38,3.92,RU,1693953216
83,ushuaia,-54.8,-68.3,1.81,55,20,2.06,AR,1693952987
84,bilibino,68.0546,166.4372,2.4,65,95,3.01,RU,1693953210
85,susuman,62.7833,148.1667,8.35,54,93,0.85,RU,1693953212
86,ziro,27.6333,93.8333,13.73,91,10,1.23,IN,1693953473
87,grand ledge,42.7534,-84.7464,32.03,51,20,3.6,US,1693953473
88,ende,-8.8432,121.6623,24.44,77,80,1.9,ID,1693953473
89,cabo san lucas,22.8909,-109.9124,35.61,58,0,6.17,MX,1693952949
90,asyqata,40.8994,68.3611,14.9,44,25,0.48,KZ,1693953474
91,rajapur,25.3833,81.15,25.94,92,100,2.84,IN,1693953474
92,sao joao dos patos,-6.495,-43.7022,26.32,31,2,1.44,BR,1693953474
93,afaahiti,-17.75,-149.2833,26.93,89,100,10.51,PF,1693953215
94,willowmore,-33.2926,23.4895,4.32,86,9,1.96,ZA,1693953474
95,uturoa,-16.7333,-151.4333,24.95,83,91,10.87,PF,1693953248
96,lata,40.1629,-8.3327,19.4,79,80,0.64,PT,1693953474
97,katsuura,35.1333,140.3,28.01,83,100,8.92,JP,1693953474
98,anadyr,64.75,177.4833,4.28,86,75,8.0,RU,1693953218
99,nemuro,43.3236,145.575,16.83,98,100,5.84,JP,1693953211
100,margaret river,-33.95,115.0667,13.21,55,81,9.65,AU,1693953209
101,port mathurin,-19.6833,63.4167,22.53,74,14,7.89,MU,1693953209
102,karaton,-6.3424,106.1045,20.3,90,95,0.73,ID,1693953475
103,bamboo flat,11.7,92.7167,28.05,83,75,3.09,IN,1693953266
104,rio grande,-32.035,-52.0986,11.06,70,2,4.77,BR,1693953250
105,sosnovo-ozerskoye,52.5249,111.5418,11.55,89,95,1.24,RU,1693953475
106,tyrone,33.4712,-84.5972,32.4,58,0,3.09,US,1693953475
107,dul'durga,50.6761,113.5931,14.31,80,99,0.93,RU,1693953475
108,iskateley,67.6803,53.1512,13.08,87,100,5.32,RU,1693953238
109,monrovia,6.3005,-10.7969,24.87,83,69,3.76,LR,1693953475
110,shache,38.4167,77.2406,21.57,34,29,3.29,CN,1693953476
111,isafjordur,66.0755,-23.124,12.17,91,89,7.85,IS,1693953229
112,kiunga,-6.1219,141.2906,23.39,98,100,1.34,PG,1693953217
113,lihue,21.9789,-159.3672,29.3,67,0,3.09,US,1693953054
114,tura,25.5198,90.2201,24.29,93,79,1.36,IN,1693953215
115,yung shue wan,22.2333,114.1167,29.26,77,100,3.87,HK,1693953476
116,wailua homesteads,22.0669,-159.378,28.96,73,0,3.58,US,1693953234
117,ketchikan,55.3422,-131.6461,15.26,77,75,3.09,US,1693953225
118,codrington,-38.2667,141.9667,9.64,69,62,7.7,AU,1693953211
119,kourou,5.1552,-52.6478,27.03,80,8,4.28,GF,1693953476
120,mersa matruh,31.3525,27.2453,28.11,65,40,5.14,EG,1693953476
121,timbuktu,16.7735,-3.0074,33.41,32,27,2.94,ML,1693953212
122,kailua-kona,19.6406,-155.9956,30.15,74,20,4.63,US,1693953260
123,sur,22.5667,59.5289,28.97,64,4,3.57,OM,1693953225
124,hailar,49.2,119.7,14.6,85,15,3.27,CN,1693953477
125,tsiroanomandidy,-18.7667,46.0333,16.88,55,2,1.1,MG,1693953477
126,port elizabeth,-33.918,25.5701,12.16,66,0,7.72,ZA,1693953253
127,horta,38.5333,-28.6333,22.23,76,69,4.02,PT,1693953310
128,el calafate,-50.3408,-72.2768,-1.37,79,63,1.32,AR,1693953477
129,torrington,41.8007,-73.1212,29.99,80,99,0.89,US,1693953477
130,portland,45.5234,-122.6762,24.12,49,40,4.63,US,1693952906
131,impfondo,1.6381,18.0667,21.92,92,99,1.06,CG,1693953477
132,saipan,15.1355,145.701,26.39,94,75,4.12,MP,1693953214
133,phan thiet,10.9333,108.1,25.16,93,100,3.63,VN,1693953478
134,tipasa,36.5897,2.4475,23.7,81,4,1.19,DZ,1693953478
135,castillos,-34.1667,-53.8333,5.63,77,14,2.78,UY,1693953215
136,jiuquan,39.7432,98.5174,21.2,34,69,7.72,CN,1693953478
137,kondopoga,62.2057,34.2614,10.82,96,95,3.74,RU,1693953478
138,val-d'or,48.1002,-77.7828,31.05,42,0,4.12,CA,1693953478
139,sars,56.5502,57.1366,7.68,91,43,1.31,RU,1693953478
140,road town,18.4167,-64.6167,30.05,66,20,2.06,VG,1693953478
141,nirgua,10.1553,-68.5663,23.09,73,39,1.29,VE,1693953478
142,itoman,26.1247,127.6694,28.21,83,20,4.63,JP,1693953273
143,smithers,54.7804,-127.1743,15.18,51,75,0.0,CA,1693953479
144,udachny,66.4167,112.4,-1.97,100,83,5.5,RU,1693953217
145,port alfred,-33.5906,26.891,10.66,76,19,2.24,ZA,1693953231
146,san pedro pochutla,15.7333,-96.4667,30.84,71,95,2.28,MX,1693953271
147,el tigre,8.8875,-64.2454,28.82,56,87,2.45,VE,1693953479
148,coquimbo,-29.9533,-71.3436,13.85,94,75,4.63,CL,1693953154
149,sterling,39.0062,-77.4286,36.06,44,75,2.68,US,1693953233
150,talara,-4.5772,-81.2719,25.42,69,0,6.94,PE,1693953479
151,margate,51.3813,1.3862,21.61,89,0,0.45,GB,1693953479
152,urumqi,43.801,87.6005,11.53,76,0,1.0,CN,1693953275
153,monteagudo,-19.8167,-63.9833,16.37,72,90,1.12,BO,1693953479
154,san luis de la loma,17.2706,-100.8939,29.01,75,100,3.34,MX,1693953257
155,weno,7.4515,151.8468,27.97,83,100,0.0,FM,1693953232
156,kargil,34.5667,76.1,8.97,54,24,2.14,IN,1693953480
157,fort bragg,35.139,-79.006,35.81,44,0,2.57,US,1693953480
158,ariquemes,-9.9133,-63.0408,31.5,27,29,1.44,BR,1693953212
159,sakaiminato,35.55,133.2333,24.99,100,75,1.03,JP,1693953480
160,yellowknife,62.456,-114.3525,15.29,41,75,3.09,CA,1693953063
161,tsiombe,-25.3,45.4833,20.05,70,1,1.5,MG,1693953262
162,tiksi,71.6872,128.8694,2.74,87,65,7.36,RU,1693953227
163,yelizovo,53.1873,158.3805,11.08,81,0,1.0,RU,1693953480
164,whitehorse,60.7161,-135.0538,15.43,49,75,1.54,CA,1693953224
165,yuzhno-kurilsk,44.0306,145.8556,18.49,95,100,2.64,RU,1693953251
166,swakopmund,-22.6833,14.5333,11.66,80,87,0.89,NA,1693953481
167,ban phaeo,13.5907,100.1075,28.34,74,100,2.52,TH,1693953481
168,fortuna,40.5982,-124.1573,21.63,67,0,7.2,US,1693953237
169,tromso,69.6496,18.957,7.01,93,75,7.2,NO,1693953481
170,fale old settlement,-9.3852,-171.2468,27.93,80,50,8.63,TK,1693953219
171,alice springs,-23.7,133.8833,11.75,50,1,0.51,AU,1693953035
172,zhanaozen,43.3,52.8,22.12,28,9,5.31,KZ,1693953481
173,olyokminsk,60.3736,120.4264,5.62,83,98,4.54,RU,1693953481
174,petropavlovsk-kamchatsky,53.0452,158.6483,10.33,82,0,1.0,RU,1693953234
175,dong ha,16.8163,107.1003,25.18,93,98,1.94,VN,1693953482
176,luau,-10.7073,22.2247,21.86,37,9,1.19,AO,1693953482
177,chengtangcun,35.0771,117.1518,22.91,82,0,1.06,CN,1693953482
178,xapuri,-10.6517,-68.5044,31.09,38,58,0.62,BR,1693953482
179,aydarken,39.9443,71.3429,11.72,52,0,0.73,KG,1693953232
180,avarua,-21.2078,-159.775,25.03,65,75,7.72,CK,1693953211
181,maintirano,-18.0667,44.0167,22.96,79,3,1.83,MG,1693953482
182,ghadamis,30.1337,9.5007,26.77,41,3,6.24,LY,1693953482
183,punta alta,-38.8759,-62.0736,11.71,62,100,5.26,AR,1693953482
184,chimbarongo,-34.7,-71.05,11.49,92,100,1.26,CL,1693953483
185,machico,32.7,-16.7667,25.0,78,20,2.57,PT,1693953483
186,supe,-10.8,-77.7333,19.32,82,66,5.25,PE,1693953483
187,tateyama,34.9833,139.8667,27.96,81,100,8.23,JP,1693953483
188,fisterra,42.9049,-9.2629,18.34,79,88,6.84,ES,1693953483
189,yeppoon,-23.1333,150.7333,20.88,64,0,3.81,AU,1693953260
190,al fulah,11.7329,28.3579,23.01,91,100,4.65,SD,1693953483
191,monticello,45.3055,-93.7941,31.1,63,40,2.06,US,1693953484
192,nijar,36.9665,-2.206,24.25,83,99,0.0,ES,1693953484
193,huazhou,21.6333,110.5833,26.28,88,96,1.42,CN,1693953484
194,st. john's,47.5649,-52.7093,18.49,96,100,1.54,CA,1693953226
195,george town,5.4112,100.3354,26.64,97,20,1.03,MY,1693953372
196,oranjemund,-28.55,16.4333,10.65,69,54,6.9,NA,1693953484
197,egilsstadir,65.2653,-14.3948,10.95,62,0,2.57,IS,1693953484
198,byarozawka,53.7214,25.4993,17.71,74,98,2.44,BY,1693953484
199,sumbe,-11.2061,13.8437,20.53,94,17,3.56,AO,1693953484
200,tofol,5.3248,163.0078,28.88,84,75,1.54,FM,1693953484
201,island harbour,50.724,-1.2758,18.85,94,23,0.77,GB,1693953485
202,sao tome,0.3365,6.7273,24.67,86,71,3.3,ST,1693953485
203,raduzhny,62.0961,77.475,8.92,64,99,4.24,RU,1693953485
204,nadi,-17.8,177.4167,28.0,54,75,3.6,FJ,1693953486
205,kodiak,57.79,-152.4072,12.73,76,0,2.57,US,1693953208
206,rampur,28.8167,79.0333,25.73,87,53,2.04,IN,1693953486
207,soritor,-6.1392,-77.1039,21.09,90,52,0.69,PE,1693953486
208,cidreira,-30.1811,-50.2056,13.13,74,68,3.42,BR,1693953258
209,karratha,-20.7377,116.8463,19.4,67,49,0.55,AU,1693953257
210,itaituba,-4.2761,-55.9836,32.45,34,85,1.28,BR,1693953487
211,pisco,-13.7,-76.2167,20.03,77,0,9.26,PE,1693953249
212,camana,-16.6228,-72.7111,18.44,81,86,2.72,PE,1693953487
213,stanley,54.868,-1.6985,15.44,94,100,1.54,GB,1693953227
214,pailin,12.849,102.6093,23.47,96,100,2.21,KH,1693953487
215,valle hermoso,25.6667,-97.8333,35.92,48,0,8.09,MX,1693953487
216,yanam,16.7333,82.2167,24.39,97,100,3.16,IN,1693953266
217,iganga,0.6092,33.4686,18.1,92,29,1.56,UG,1693953487
218,kolonia town,6.964,158.206,29.06,84,75,1.54,FM,1693953487
219,houghton,47.1219,-88.569,31.71,70,0,4.63,US,1693953246
220,guasdualito,7.2424,-70.7324,31.98,66,20,1.54,VE,1693953488
221,mahibadhoo,3.7833,72.9667,27.38,75,80,5.08,MV,1693953244
222,red chute,32.556,-93.6132,36.07,47,0,4.63,US,1693953488
223,mesyagutovo,55.5303,58.2528,9.61,87,93,1.03,RU,1693953488
224,dondo,-19.6094,34.7431,18.73,94,0,1.52,MZ,1693953488
225,altamont,42.2068,-121.7372,26.55,37,0,2.24,US,1693953489
226,jaguey grande,22.5269,-81.1286,28.29,77,73,1.2,CU,1693953489
227,hermanus,-34.4187,19.2345,8.78,73,30,6.73,ZA,1693953213
228,port saint john's,-31.6229,29.5448,14.42,54,46,6.4,ZA,1693953213
229,metlili chaamba,32.2667,3.6333,33.52,22,0,3.09,DZ,1693953489
230,qaisumah,28.3112,46.1273,32.98,17,0,1.54,SA,1693953489
231,berezovyy,51.6667,135.7,12.75,63,62,2.0,RU,1693953489
232,bangjun,39.9911,117.2628,23.18,78,0,0.5,CN,1693953489
233,santa cruz,-17.8,-63.1667,24.7,50,75,5.14,BO,1693953489
234,kingaroy,-26.5333,151.8333,20.28,61,97,1.59,AU,1693953489
235,verkhnedneprovskiy,54.9813,33.3457,12.28,76,100,3.29,RU,1693953490
236,kolonia,50.9333,6.95,23.23,66,0,2.06,DE,1693953344
237,mount pearl,47.5166,-52.7813,18.03,96,100,1.54,CA,1693953248
238,thunder bay,48.4001,-89.3168,26.99,65,75,4.63,CA,1693953490
239,kargasok,59.0556,80.8572,11.44,97,80,3.13,RU,1693953490
240,pajara,28.3504,-14.1076,22.73,74,85,4.05,ES,1693953490
241,yarmouth,41.7057,-70.2286,27.08,86,0,3.09,US,1693953490
242,guerrero negro,27.9769,-114.0611,21.53,74,0,6.43,MX,1693953051
243,neryungri,56.6709,124.6491,9.39,61,58,1.65,RU,1693953490
244,tolanaro,-25.0319,46.9987,22.04,78,0,8.23,MG,1693953218
245,puerto santa,-8.9906,-78.6456,20.2,79,92,5.63,PE,1693953491
246,rosales,15.8944,120.6328,25.14,95,100,1.61,PH,1693953491
247,broome,42.2506,-75.833,30.3,78,0,3.09,US,1693953268
248,la passe,45.5549,-0.8967,26.13,56,58,3.67,FR,1693953259
249,tarawa,1.419,172.984,31.05,74,20,4.63,KI,1693953491
250,black point,-34.6187,137.8972,13.7,68,0,7.2,AU,1693953491
251,belozersk,60.0326,37.7957,15.51,80,100,6.32,RU,1693953491
252,marquette,46.5333,-87.6335,28.35,71,100,1.79,US,1693953237
253,olinda,-8.0089,-34.8553,26.85,69,75,4.63,BR,1693953491
254,nantucket,41.2835,-70.0995,27.08,87,0,3.6,US,1693953051
255,alghero,40.5589,8.3181,19.05,59,0,1.54,IT,1693953301
256,labrador city,52.9463,-66.9114,21.95,46,75,3.09,CA,1693953218
257,atafu village,-8.5421,-172.5159,28.22,78,9,7.87,TK,1693953219
258,butia,-30.1197,-51.9622,10.22,83,10,3.19,BR,1693953492
259,chernyshevskiy,63.0128,112.4714,-2.06,80,6,1.31,RU,1693953492
260,constantia,44.1833,28.65,20.39,57,85,6.26,RO,1693953217
261,arno,60.1167,18.6333,15.44,74,72,5.47,SE,1693953492
262,solaro,44.8799,9.1732,17.61,76,19,1.83,IT,1693953492
263,francistown,-21.17,27.5079,18.63,32,0,2.69,BW,1693953492
264,opuwo,-18.0607,13.84,18.77,26,1,1.67,NA,1693953492
265,bonthe,7.5264,-12.505,25.23,84,99,3.44,SL,1693953270
266,senador jose porfirio,-2.5908,-51.9542,28.88,58,54,1.29,BR,1693953493
267,"laikit, laikit ii (dimembe)",1.4792,124.9735,22.47,88,20,1.03,ID,1693953493
268,kinmparana,12.8402,-4.9199,26.25,72,42,3.56,ML,1693953493
269,shelburne,44.0787,-80.2041,31.24,48,5,2.73,CA,1693953493
270,crateus,-5.1783,-40.6775,28.1,28,22,0.94,BR,1693953493
271,gadzhiyevo,69.2551,33.3362,8.02,81,96,3.89,RU,1693953197
272,puerto baquerizo moreno,-0.9,-89.6,25.55,78,75,5.14,EC,1693953156
273,miles city,46.4083,-105.8406,21.54,37,75,2.57,US,1693953493
274,meadow lakes,61.6247,-149.6011,16.03,80,0,1.54,US,1693953494
275,taroa,8.7058,171.2275,28.25,76,35,5.48,MH,1693953494
276,alo,7.4178,6.7371,23.48,96,70,0.91,NG,1693953494
277,ocos,14.5094,-92.1933,33.1,62,33,2.16,GT,1693953494
278,holualoa,19.6228,-155.9522,28.08,73,20,4.63,US,1693952965
279,l'isle-d'abeau,45.6181,5.2355,25.06,50,0,4.63,FR,1693953494
280,grand falls-windsor,48.9332,-55.6649,21.39,62,32,0.89,CA,1693953449
281,darab,28.7519,54.5444,27.9,14,0,3.62,IR,1693953494
282,bangassou,4.7413,22.8184,19.72,98,83,0.59,CF,1693953494
283,geraldton,-28.7667,114.6,15.23,94,75,5.66,AU,1693953082
284,sao miguel do araguaia,-13.275,-50.1628,32.32,29,61,1.46,BR,1693953495
285,bikenibeu village,1.3673,173.1241,30.98,74,20,4.63,KI,1693953495
286,mitu,1.1983,-70.1733,27.35,59,34,0.28,CO,1693953216
287,longyearbyen,78.2186,15.6401,4.91,87,75,4.12,SJ,1693953210
288,sainte-suzanne,-20.9061,55.6089,20.12,68,0,3.6,RE,1693953495
289,vila velha,-20.3297,-40.2925,24.97,86,20,6.17,BR,1693953216
290,aldinga beach,-35.2793,138.4604,15.11,68,2,5.43,AU,1693953495
291,flying fish cove,-10.4217,105.6791,23.82,83,75,5.66,CX,1693953240
292,kawerau,-38.1,176.7,15.77,95,100,2.24,NZ,1693953495
293,san fernando de monte cristi,19.8667,-71.65,29.32,70,74,3.05,DO,1693953496
294,villa gesell,-37.2639,-56.973,6.75,66,33,4.7,AR,1693953268
295,cheremushki,52.8356,91.3944,11.18,84,72,1.43,RU,1693953233
296,tazacorte,28.629,-17.9293,23.54,86,0,2.06,ES,1693953232
297,manokwari,-0.8667,134.0833,26.38,79,71,0.74,ID,1693953496
298,concepcion del oro,24.6333,-101.4167,29.04,18,23,4.52,MX,1693953496
299,naze,28.3667,129.4833,25.51,76,87,1.71,JP,1693953496
300,narasannapeta,18.4167,84.05,25.41,91,88,2.07,IN,1693953496
301,tongliao,43.6125,122.2653,19.43,68,2,1.95,CN,1693953496
302,puli,23.9664,120.9695,25.68,91,100,0.66,TW,1693953496
303,kuanda,56.3161,116.0806,11.98,65,100,0.31,RU,1693953497
304,dunedin,-45.8742,170.5036,14.48,70,41,1.34,NZ,1693953069
305,borogontsy,62.6683,131.1683,9.31,80,100,2.46,RU,1693953497
306,axim,4.8699,-2.2405,24.18,91,100,2.78,GH,1693953497
307,montecristo,8.2971,-74.4733,28.68,84,90,0.03,CO,1693953497
308,homer,59.6425,-151.5483,16.93,73,0,6.17,US,1693953257
309,nelson bay,-32.7167,152.15,16.67,54,0,3.13,AU,1693953269
310,gowurdak,37.8124,66.0466,19.86,23,0,0.26,TM,1693953497
311,bata,1.8639,9.7658,24.74,88,96,1.24,GQ,1693953497
312,chipata,-13.6333,32.65,19.03,43,0,2.01,ZM,1693953269
313,nar'yan-mar,67.6713,53.087,13.17,87,100,5.42,RU,1693953197
314,kpandae,8.4689,-0.0113,23.06,90,77,2.05,GH,1693953498
315,zeya,53.75,127.2667,11.14,63,19,0.62,RU,1693953197
316,roxas,11.5853,122.7511,26.19,85,99,1.38,PH,1693953498
317,sardinata,8.0829,-72.8007,33.82,61,93,1.31,CO,1693953498
318,upington,-28.4478,21.2561,6.21,56,89,2.06,ZA,1693953498
319,coyhaique,-45.5752,-72.0662,8.97,43,75,3.09,CL,1693953035
320,ribeira brava,32.65,-17.0667,25.0,77,100,3.4,PT,1693953245
321,saint-francois,46.4154,3.9054,18.69,77,0,0.51,FR,1693953498
322,basco,20.4487,121.9702,27.83,80,100,4.25,PH,1693953499
323,ust-nera,64.5667,143.2,7.63,61,89,1.67,RU,1693953209
324,lazaro cardenas,17.9583,-102.2,29.48,69,100,3.42,MX,1693953230
325,port nelson,23.6333,-74.8333,28.62,75,10,5.21,BS,1693953499
326,zhigalovo,54.8097,105.1578,13.03,94,100,0.47,RU,1693953499
327,gharo,24.7424,67.5856,26.12,75,0,4.82,PK,1693953499
328,chibougamau,49.9168,-74.3659,29.79,45,0,4.12,CA,1693953019
329,malindi,-3.2175,40.1191,24.28,87,31,5.76,KE,1693953499
330,chonchi,-42.6128,-73.8092,8.95,98,100,4.55,CL,1693953221
331,vilyuchinsk,52.9306,158.4028,11.15,60,30,1.64,RU,1693953214
332,ishige,36.1167,139.9667,29.35,78,81,1.05,JP,1693953499
333,mizdah,31.4451,12.9801,20.59,62,0,4.14,LY,1693953500
334,belyy yar,53.6039,91.3903,8.94,93,0,0.0,RU,1693953500
335,pingliang,35.5392,106.6861,16.25,76,62,1.8,CN,1693953500
336,hovd,48.0056,91.6419,11.22,31,21,1.93,MN,1693953500
337,patti,31.2808,74.8572,28.04,65,0,1.57,IN,1693953500
338,la'ie,21.6477,-157.9253,32.66,65,99,3.58,US,1693953500
339,moussoro,13.6408,16.4901,26.97,69,81,5.22,TD,1693953500
340,dryden,49.7833,-92.7503,15.16,94,100,3.09,CA,1693953243
341,hoi an,15.8794,108.335,25.98,90,100,2.26,VN,1693953500
342,fonte boa,-2.4959,-66.2662,30.0,35,1,1.3,BR,1693953500
343,berber,18.0216,33.983,32.58,48,51,5.49,SD,1693953501
344,okhotsk,59.3833,143.3,9.88,84,100,4.79,RU,1693953501
345,kolwezi,-10.7148,25.4667,19.46,67,16,0.63,CD,1693953501
346,igrim,63.1906,64.4162,7.23,67,1,1.34,RU,1693953501
347,suruc,36.9761,38.425,28.41,36,0,2.51,TR,1693953501
348,ankang,32.68,109.0172,18.45,73,4,1.43,CN,1693953264
349,vernon,50.2581,-119.2691,27.09,36,89,2.68,CA,1693953012
350,mimoso do sul,-21.0642,-41.3664,23.59,93,38,2.18,BR,1693953501
351,suva,-18.1416,178.4415,26.71,65,75,3.6,FJ,1693953464
352,baruun-urt,46.6806,113.2792,18.48,53,27,3.2,MN,1693953502
353,cold lake,54.4502,-110.2017,15.97,44,40,5.14,CA,1693953502
354,lecheng,25.1238,113.3254,23.88,98,99,1.62,CN,1693953502
355,nizhniy kuranakh,58.8353,125.4869,8.67,81,100,2.69,RU,1693953502
356,along,28.1667,94.7667,22.53,93,5,0.95,IN,1693953502
357,sisimiut,66.9395,-53.6735,5.74,94,100,5.79,GL,1693953220
358,hinche,19.15,-72.0167,27.36,74,91,1.17,HT,1693953502
359,sittwe,20.15,92.9,26.86,89,100,4.86,MM,1693953502
360,kristiansund,63.1115,7.732,11.36,76,75,3.09,NO,1693953502
361,al bawiti,28.3492,28.8659,26.81,30,0,0.01,EG,1693953503
362,monkey bay,-14.0728,34.9201,24.61,61,0,0.25,MW,1693953503
363,ulladulla,-35.35,150.4667,11.47,49,0,1.54,AU,1693952930
364,afif,23.9065,42.9172,27.03,10,2,3.63,SA,1693953503
365,nikolayevsk-on-amure,53.1406,140.73,10.69,98,100,1.48,RU,1693953503
366,ahero,-0.1746,34.9163,18.45,87,63,1.22,KE,1693953503
367,bontang,0.1333,117.5,25.04,88,28,2.49,ID,1693953503
368,al bayda',32.7627,21.7551,19.88,73,69,3.87,LY,1693953503
369,nova sintra,14.8667,-24.7167,23.65,79,99,8.74,CV,1693953257
370,cabedelo,-6.9811,-34.8339,25.37,81,6,6.79,BR,1693953503
371,port lincoln,-34.7333,135.8667,14.38,55,1,8.36,AU,1693953228
372,zharkent,44.1628,80.0,14.05,46,9,2.44,KZ,1693953504
373,samfya,-11.3649,29.5565,20.45,42,8,2.36,ZM,1693953504
374,howrah,22.5892,88.3103,28.0,94,40,2.06,IN,1693953216
375,chos malal,-37.3781,-70.2709,8.39,83,100,2.35,AR,1693953504
376,enewetak,11.3474,162.3373,28.86,75,99,2.56,MH,1693953273
377,bahir dar,11.5936,37.3908,15.81,94,76,1.7,ET,1693953504
378,severo-yeniseyskiy,60.3725,93.0408,10.74,97,100,1.19,RU,1693953504
379,lospalos,-8.5186,127.0025,21.82,76,48,3.25,TL,1693953504
380,dera bugti,29.0307,69.151,29.77,38,0,1.63,PK,1693953505
381,ambodifotatra,-16.9833,49.85,22.51,81,10,2.45,MG,1693953239
382,edea,3.8,10.1333,22.96,98,89,0.12,CM,1693953505
383,laojunmiao,39.8333,97.7333,16.17,47,65,5.32,CN,1693953505
384,roghun,38.7826,69.8708,16.65,40,0,0.63,TJ,1693953505
385,santiago de veraguas,8.1,-80.9833,26.84,84,95,0.95,PA,1693953410
386,tinajo,29.0788,-13.7081,22.49,78,20,3.09,ES,1693953505
387,springs,-26.25,28.4,17.16,41,94,5.12,ZA,1693953505
388,iver heath,51.5344,-0.5302,20.76,73,4,1.03,GB,1693953505
389,mar del plata,-38.0023,-57.5575,7.75,69,0,3.09,AR,1693953209
390,menaka,15.9182,2.4022,32.7,42,0,3.03,ML,1693953506
391,washington,47.5001,-120.5015,25.32,36,26,2.66,US,1693953316
392,nahiyat ash shinafiyah,31.5874,44.6602,35.6,14,0,4.47,IQ,1693953506
393,keflavik,64.0049,-22.5624,11.95,100,100,8.75,IS,1693953226
394,weyburn,49.6668,-103.8511,17.12,39,38,3.6,CA,1693953303
395,farafangana,-22.8167,47.8333,19.0,89,2,3.96,MG,1693953506
396,maddela,16.3414,121.6849,25.18,95,100,0.39,PH,1693953506
397,toliara,-23.35,43.6667,20.25,62,0,1.53,MG,1693953506
398,khandyga,62.6667,135.6,10.1,67,100,1.75,RU,1693953253
399,laksar,29.7667,78.05,25.36,81,0,1.93,IN,1693953507
400,vila franca do campo,37.7167,-25.4333,21.23,83,43,7.98,PT,1693953246
401,hailun,47.45,126.9333,14.23,91,100,2.11,CN,1693953507
402,mukalla,14.5425,49.1242,29.1,85,5,2.67,YE,1693953215
403,guarapari,-20.6667,-40.4975,24.94,88,5,6.82,BR,1693953507
404,christchurch,-43.5333,172.6333,19.67,66,81,5.14,NZ,1693953507
405,quepos,9.4236,-84.1652,27.49,82,64,0.76,CR,1693953507
406,nuriootpa,-34.4833,139.0,13.64,49,1,4.81,AU,1693953507
407,ermoupolis,37.4423,24.9425,24.39,83,59,5.66,GR,1693953508
408,kerikeri,-35.2268,173.9474,17.17,94,12,0.89,NZ,1693953508
409,tionk essil,12.7856,-16.5217,26.98,92,80,2.81,SN,1693953508
410,yamada,39.4667,141.95,23.22,93,100,2.62,JP,1693953508
411,arraial do cabo,-22.9661,-42.0278,21.92,88,75,10.29,BR,1693953239
412,choibalsan,48.0667,114.5,18.97,49,63,2.52,MN,1693953508
413,hadibu,12.65,54.0333,25.97,84,98,3.52,YE,1693953264
414,zinder,13.8072,8.9881,30.49,43,0,4.38,NE,1693953508
415,rizokarpaso,35.6,34.375,26.45,66,0,3.04,CY,1693953508
416,syas'stroy,60.1367,32.5691,13.8,91,44,6.84,RU,1693953508
417,aldama,22.9167,-98.0667,36.39,54,1,6.56,MX,1693953510
418,faya-largeau,17.9257,19.1043,36.6,23,60,9.49,TD,1693953273
419,sitka,57.0531,-135.33,15.94,59,0,2.57,US,1693953245
420,forest,37.3638,-79.2897,33.05,55,0,1.54,US,1693953510
421,mazagao,-0.115,-51.2894,30.03,66,66,3.89,BR,1693953510
422,usogorsk,63.4106,48.6872,14.15,76,100,4.02,RU,1693953250
423,le port,-20.9373,55.2919,20.0,79,58,2.45,RE,1693953510
424,laguna,38.421,-121.4238,34.05,33,0,2.06,US,1693952954
425,fayzabad,37.1166,70.58,16.48,44,0,0.38,AF,1693953510
426,fomboni,-12.28,43.7425,25.04,79,6,3.51,KM,1693953511
427,memmingen,47.9837,10.1853,15.11,85,36,1.03,DE,1693953511
428,farah,32.5,62.5,22.64,15,0,1.9,AF,1693953511
429,conde,-7.2597,-34.9075,24.7,88,75,3.6,BR,1693953511
430,borgarnes,64.5383,-21.9206,13.78,95,100,4.08,IS,1693953511
431,mount gambier,-37.8333,140.7667,9.48,66,45,4.05,AU,1693953046
432,nuku'alofa,-21.1333,-175.2,24.19,64,20,5.66,TO,1693953231
433,uaua,-9.8414,-39.4817,27.02,44,57,8.13,BR,1693953511
434,beni,0.5,29.4667,16.9,98,76,0.55,CD,1693953512
435,luderitz,-26.6481,15.1594,11.82,61,76,9.55,NA,1693953215
436,tottori,35.5,134.2333,26.04,83,75,1.54,JP,1693953512
437,callao,-12.0667,-77.15,23.18,73,100,6.17,PE,1693953512
438,kiama,-34.6833,150.8667,16.11,61,0,2.68,AU,1693953512
439,harstad,68.799,16.5293,8.66,95,100,9.39,NO,1693953512
440,leones,-32.6617,-62.2968,11.64,61,67,3.67,AR,1693953512
441,sena madureira,-9.0656,-68.6569,32.59,33,85,1.35,BR,1693953512
442,zvenihorodka,49.0787,30.9675,14.38,52,0,3.51,UA,1693953513
443,banda aceh,5.5577,95.3222,25.55,78,100,3.39,ID,1693953513
444,nahiyat al fuhud,30.9697,46.7228,36.8,11,0,5.38,IQ,1693953513
445,nuuk,64.1835,-51.7216,5.49,93,100,9.39,GL,1693953266
446,molde,62.7375,7.1591,10.39,87,20,0.51,NO,1693953513
447,brookings,44.3114,-96.7984,23.0,80,100,6.69,US,1693953513
448,lorengau,-2.0226,147.2712,28.54,77,48,4.49,PG,1693953215
449,akureyri,65.6835,-18.0878,12.96,62,75,7.72,IS,1693953106
450,illizi,26.4833,8.4667,33.89,20,9,2.22,DZ,1693953256
451,kimbe,-5.5502,150.1429,29.89,63,39,1.92,PG,1693953513
452,roma,43.2128,-75.4557,29.08,70,0,5.14,US,1693953513
453,malango,-2.9627,119.9001,20.58,89,78,0.44,ID,1693953514
454,usinsk,65.9939,57.5281,11.6,90,92,6.8,RU,1693953220
455,undurkhaan,47.3194,110.6556,18.47,44,90,2.03,MN,1693953514
456,kukawa,12.9234,13.5606,25.9,63,39,4.87,NG,1693953514
457,flin flon,54.7682,-101.865,16.91,31,20,3.6,CA,1693953514
458,kirakira,-10.4544,161.9205,28.03,80,77,6.01,SB,1693953514
459,vera,-29.4593,-60.2126,13.72,63,13,4.12,AR,1693953446
460,floro,61.5996,5.0328,9.98,87,3,2.06,NO,1693953247
461,bardai,11.65,7.2333,22.09,85,25,2.23,NG,1693953514
462,new norfolk,-42.7826,147.0587,12.16,67,97,2.63,AU,1693953515
463,star,43.6921,-116.4935,29.54,31,0,2.06,US,1693953515
464,amod,21.9833,72.9,28.74,62,3,3.36,IN,1693953515
465,malvan,16.0667,73.4667,26.25,82,35,2.96,IN,1693953515
466,taltal,-25.4,-70.4833,18.59,61,32,1.57,CL,1693953515
467,eraan,9.0629,117.7016,26.75,88,88,1.59,PH,1693953515
468,camocim,-2.9022,-40.8411,26.21,77,4,8.77,BR,1693953370
469,wakkanai,45.4094,141.6739,18.91,90,31,1.35,JP,1693953515
470,neiafu,-18.65,-173.9833,25.38,73,40,3.09,TO,1693953515
471,strathalbyn,-35.2667,138.9,14.81,71,1,5.28,AU,1693953515
472,bridgewater,44.3835,-64.5155,23.79,60,28,6.69,CA,1693953516
473,arteche,12.2645,125.4048,26.88,82,100,1.47,PH,1693953516
474,ojai,34.4481,-119.2429,27.86,69,5,1.34,US,1693953516
475,debre werk',10.6667,38.1667,11.84,82,69,0.9,ET,1693953274
476,inari,68.906,27.0288,6.11,84,70,1.49,FI,1693953516
477,boguchany,58.3814,97.4531,11.34,74,100,1.47,RU,1693953516
478,chertkovo,49.3847,40.1547,13.97,74,3,1.67,RU,1693953516
479,palikir - national government center,6.9248,158.1611,28.47,84,75,1.54,FM,1693953237
480,galliano,29.4422,-90.2992,32.22,55,0,2.06,US,1693953516
481,mogadishu,2.0371,45.3438,25.05,90,62,8.89,SO,1693953297
482,polyarnyy,69.1989,33.4478,8.05,82,96,3.29,RU,1693953230
483,ujae,8.9322,165.7642,28.82,75,80,5.11,MH,1693953517
484,maraba,-5.3686,-49.1178,29.1,61,0,1.54,BR,1693953517
485,carnarvon,-24.8667,113.6333,17.18,76,14,7.5,AU,1693953231
486,princeton,25.5384,-80.4089,31.12,72,0,5.14,US,1693953517
487,shimoda,34.6667,138.95,26.72,78,100,5.64,JP,1693953517
488,fauske,67.2588,15.3918,10.02,83,100,10.41,NO,1693953517
489,popondetta,-8.7537,148.2534,29.23,66,14,0.55,PG,1693953265
490,nogliki,51.8333,143.1667,12.96,91,100,5.74,RU,1693953517
491,kirensk,57.7853,108.1119,8.32,82,90,1.98,RU,1693953518
492,fredericton,45.9454,-66.6656,25.58,65,0,4.63,CA,1693953518
493,ben tre,10.2333,106.3833,24.52,95,100,1.65,VN,1693953518
494,las heras,-46.5419,-68.9359,3.51,81,93,10.21,AR,1693953518
495,klyuchi,52.2667,79.1667,9.6,68,94,2.76,RU,1693953213
496,namsos,64.4662,11.4957,12.03,82,100,3.09,NO,1693953518
497,gisborne,-38.6533,178.0042,16.63,62,12,1.57,NZ,1693953518
498,novodvinsk,64.4165,40.8122,10.32,96,100,4.57,RU,1693953518
499,corinto,37.9407,22.9573,19.94,84,100,1.18,GR,1693953426
500,la rinconada,37.4873,-5.9826,23.92,71,0,1.54,ES,1693953222
501,ulsteinvik,62.3432,5.8487,13.2,84,9,1.34,NO,1693953519
502,fort st. john,56.2499,-120.8529,13.94,47,75,5.66,CA,1693953246
503,palmer,42.1584,-72.3287,30.75,55,75,1.54,US,1693953238
504,qamdo,31.1667,97.2333,3.09,89,84,1.24,CN,1693953519
505,san juan de uraba,8.7592,-76.5297,27.81,81,24,2.6,CO,1693953519
506,colonia,50.9333,6.95,23.23,66,0,2.06,DE,1693953142
507,erenhot,43.6475,111.9767,23.18,31,23,3.52,CN,1693953519
508,tvoroyri,61.5556,-6.8111,11.0,79,55,3.78,FO,1693953273
509,ceeldheer,3.8488,47.1806,25.08,87,50,9.53,SO,1693953212
510,prince rupert,54.3161,-130.3201,14.05,90,100,3.09,CA,1693953011
511,arkhangel'sk,64.5401,40.5433,10.38,96,100,3.33,RU,1693953226
512,red deer,52.2668,-113.802,17.27,55,100,2.57,CA,1693953448
513,lautoka,-17.6167,177.4667,27.92,54,75,3.6,FJ,1693952960
514,xai-xai,-25.0519,33.6442,20.34,53,3,2.12,MZ,1693953520
515,estancia,-11.2683,-37.4383,21.3,93,8,2.08,BR,1693953520
516,oblivskaya,48.5362,42.5014,17.55,69,100,2.91,RU,1693953520
517,meadow lake,34.8014,-106.5436,32.3,18,0,2.7,US,1693953520
518,hibbing,47.4272,-92.9377,21.64,100,100,2.06,US,1693953520
519,alcala,4.6747,-75.7825,29.56,54,20,1.03,CO,1693953521
520,aswan,24.0934,32.907,23.61,33,0,3.09,EG,1693953521
521,picota,-6.9197,-76.3304,25.27,84,48,0.73,PE,1693953521
522,yanggu,36.1106,115.7753,21.85,80,0,1.89,CN,1693953521
523,progreso,21.2833,-89.6667,35.06,74,34,7.08,MX,1693953521
524,llallagua,-18.4167,-66.6333,9.03,40,100,2.93,BO,1693953521
525,kachug,53.9606,105.8817,13.29,87,100,1.43,RU,1693953521
526,deoli,25.75,75.3833,27.55,66,52,1.56,IN,1693953521
527,port douglas,-16.4833,145.4667,22.73,74,62,3.18,AU,1693953521
528,'ali sabieh,11.1558,42.7125,31.27,45,20,0.9,DJ,1693953522
529,kapa'a,22.0752,-159.319,29.71,73,0,3.58,US,1693953212
530,kapit,2.0167,112.9333,23.69,99,99,0.48,MY,1693953522
531,general acha,-37.377,-64.6043,10.88,49,100,8.51,AR,1693953522
532,genhe,50.7833,121.5167,11.68,84,19,0.78,CN,1693953522
533,ongwediva,-17.7833,15.7667,21.98,18,0,4.35,NA,1693953522
534,quintanar de la orden,39.5937,-3.0417,21.13,68,80,4.59,ES,1693953522
535,noumea,-22.2763,166.4572,25.99,99,99,3.42,NC,1693953353
536,pudasjarvi,65.3833,26.9167,9.05,77,92,3.11,FI,1693953522
537,ixtapa,20.7,-105.2,31.57,66,75,1.41,MX,1693953225
538,shakawe,-18.3667,21.85,18.11,10,0,3.0,BW,1693953523
539,lebork,54.5392,17.7501,19.15,93,6,2.61,PL,1693953523
540,mahdishahr,35.7108,53.3556,23.03,40,9,2.43,IR,1693953523
541,sandnessjoen,66.0217,12.6316,10.29,72,92,9.3,NO,1693953523
542,namtsy,62.7161,129.6658,10.63,63,100,2.83,RU,1693953227
543,barcelos,41.5388,-8.6151,21.03,82,95,1.43,PT,1693953149
544,necochea,-38.5473,-58.7368,4.99,72,37,4.43,AR,1693953523
545,santana,-0.0583,-51.1817,30.1,66,20,5.66,BR,1693953523
546,tadine,-21.55,167.8833,22.03,77,100,6.69,NC,1693953524
547,coahuayana de hidalgo,18.7,-103.6583,28.98,78,98,2.55,MX,1693953524
548,dhuusamarreeb,5.535,46.3861,25.39,69,72,10.42,SO,1693953524
549,gebre guracha,9.8,38.4,12.12,84,90,1.2,ET,1693953524
550,misratah,32.3754,15.0925,25.22,57,1,6.62,LY,1693953524
551,touros,-5.1989,-35.4608,25.0,79,36,7.2,BR,1693953524
552,yaounde,3.8667,11.5167,20.09,97,93,1.57,CM,1693953524
553,save,8.0425,2.486,22.69,91,79,2.01,BJ,1693953524
554,yazd,31.8972,54.3675,29.06,16,20,2.06,IR,1693953525
555,aars,56.804,9.5144,15.44,95,6,3.42,DK,1693953525
556,rawson,-43.3002,-65.1023,8.9,73,66,9.82,AR,1693953525
557,quibala,-10.7337,14.98,18.21,76,1,1.4,AO,1693953525
558,santa marta,11.2408,-74.199,34.03,59,75,4.12,CO,1693953165
559,happy valley-goose bay,53.3168,-60.3315,22.17,46,75,2.57,CA,1693953525
560,walvis bay,-22.9575,14.5053,11.72,71,69,2.06,NA,1693953525
561,kochubey,44.3861,46.5825,21.68,86,46,2.34,RU,1693953525
562,ghat,24.9647,10.1728,33.71,16,0,1.88,LY,1693953219
563,naliya,23.2667,68.8333,26.72,80,0,3.62,IN,1693953526
564,bibbiena,43.6965,11.8135,15.53,89,7,2.64,IT,1693953526
