City_ID,City,Lat,Lng,Max Temp,Humidity,Cloudiness,Wind Speed,Country,Date
0,adamstown,-25.066,-130.1015,19.26,87,100,9.2,PN,1693957067
1,jamestown,42.097,-79.2353,27.8,61,0,2.57,US,1693957082
2,reuleuet,5.2167,96.2833,25.71,79,99,1.49,ID,1693957647
3,avarua,-21.2078,-159.775,25.03,69,75,7.72,CK,1693957073
4,ilulissat,69.2167,-51.1,7.01,87,75,0.51,GL,1693957073
5,fale old settlement,-9.3852,-171.2468,27.94,80,48,8.55,TK,1693957067
6,kapuskasing,49.4169,-82.4331,31.05,45,20,6.69,CA,1693956782
7,stanley,54.868,-1.6985,15.44,94,100,1.54,GB,1693957066
8,itoman,26.1247,127.6694,30.01,79,20,4.63,JP,1693957120
9,port-aux-francais,-49.35,70.2167,2.77,81,99,14.79,TF,1693957062
10,guozhen,34.3659,107.359,21.86,68,56,1.0,CN,1693957648
11,birao,10.2849,22.7882,19.88,96,66,1.43,CF,1693957648
12,malango,-2.9627,119.9001,23.76,74,83,1.02,ID,1693957648
13,ji'an,27.1172,114.9793,23.9,95,100,2.2,CN,1693957648
14,new norfolk,-42.7826,147.0587,13.84,68,98,2.76,AU,1693957648
15,invercargill,-46.4,168.35,15.01,78,57,1.34,NZ,1693957072
16,presque isle,46.6811,-68.0159,25.24,71,20,2.06,US,1693957649
17,santa ana,33.7456,-117.8678,27.97,74,100,4.12,US,1693957364
18,bethel,41.3712,-73.414,29.2,80,0,1.54,US,1693957063
19,ifanadiana,-21.3,47.6333,14.76,97,10,1.42,MG,1693957649
20,lascano,-33.6667,-54.2,4.86,81,10,2.8,UY,1693957649
21,aasiaat,68.7098,-52.8699,3.54,97,100,4.84,GL,1693957070
22,ar rass,25.8694,43.4973,27.48,16,0,3.73,SA,1693957649
23,albany,42.6001,-73.9662,27.93,79,81,1.73,US,1693957006
24,vladimiro-aleksandrovskoye,42.8944,133.0778,20.75,56,3,4.46,RU,1693957649
25,grytviken,-54.2811,-36.5092,-4.12,79,39,4.95,GS,1693957064
26,cozumel,20.5083,-86.9458,30.04,89,75,3.09,MX,1693957091
27,sao francisco de assis,-29.5503,-55.1311,10.74,84,0,4.17,BR,1693957650
28,hithadhoo,-0.6,73.0833,28.06,73,94,6.23,MV,1693957091
29,bredasdorp,-34.5322,20.0403,6.04,83,4,3.86,ZA,1693957064
30,port elizabeth,-33.918,25.5701,12.16,62,0,6.17,ZA,1693957084
31,bilibino,68.0546,166.4372,3.21,63,95,4.4,RU,1693957065
32,behbahan,30.5959,50.2417,33.59,12,4,1.91,IR,1693957650
33,margaret river,-33.95,115.0667,13.17,54,70,9.66,AU,1693957067
34,kirensk,57.7853,108.1119,10.8,71,81,2.42,RU,1693957087
35,jayapura,-2.5333,140.7,27.66,67,73,1.95,ID,1693957650
36,liuduzhai,27.3661,110.935,23.98,85,78,1.21,CN,1693957651
37,udachny,66.4167,112.4,-0.86,92,85,6.97,RU,1693957090
38,thinadhoo,0.5333,72.9333,28.23,73,88,5.1,MV,1693957651
39,sitka,57.0531,-135.33,16.94,63,0,2.57,US,1693957098
40,la'ie,21.6477,-157.9253,31.98,66,99,2.68,US,1693957651
41,port lincoln,-34.7333,135.8667,16.51,48,1,9.57,AU,1693957070
42,anadyr,64.75,177.4833,5.28,70,75,9.0,RU,1693957106
43,nasir,15.5894,32.5634,28.36,53,55,4.4,SD,1693957651
44,sarikei,2.1167,111.5167,24.9,94,100,0.28,MY,1693957651
45,puerto natales,-51.7236,-72.4875,-1.35,83,6,2.28,CL,1693957066
46,iskateley,67.6803,53.1512,13.05,91,100,5.55,RU,1693957095
47,zouerate,22.7187,-12.4521,34.16,33,32,2.54,MR,1693957652
48,ushuaia,-54.8,-68.3,1.81,55,20,2.06,AR,1693957064
49,suntar,62.1444,117.6319,2.32,79,92,3.02,RU,1693957652
50,tual,-5.6667,132.75,25.18,83,31,8.04,ID,1693957081
51,waitangi,-43.9535,-176.5597,13.23,80,100,2.68,NZ,1693957063
52,san antonio de pale,-1.4014,5.6325,23.08,88,76,6.52,GQ,1693957090
53,tiksi,71.6872,128.8694,2.77,87,71,8.41,RU,1693957068
54,ban nam yuen,9.8769,98.8659,26.67,94,99,1.17,TH,1693957652
55,hawaiian paradise park,19.5933,-154.9731,29.29,70,20,5.66,US,1693957069
56,ribeira grande,38.5167,-28.7,22.65,78,60,1.79,PT,1693957064
57,lihue,21.9789,-159.3672,29.3,66,0,4.63,US,1693957066
58,harper,4.375,-7.7169,24.66,86,45,3.52,LR,1693957653
59,portland,45.5234,-122.6762,24.73,49,20,4.63,US,1693957308
60,aykhal,66.0,111.5,-1.56,89,71,4.94,RU,1693957653
61,gokceada,40.2011,25.909,22.6,80,100,13.6,TR,1693957653
62,olonkinbyen,70.9221,-8.7187,6.49,88,53,9.51,SJ,1693957068
63,thompson,55.7435,-97.8558,13.09,54,75,3.09,CA,1693957066
64,huarmey,-10.0681,-78.1522,19.67,82,58,4.71,PE,1693957653
65,izyum,49.2088,37.2485,15.08,81,0,2.28,UA,1693957653
66,lompoc,34.6391,-120.4579,26.08,77,100,6.26,US,1693957090
67,atafu village,-8.5421,-172.5159,28.38,78,5,7.96,TK,1693957072
68,west island,-12.1568,96.8225,24.99,78,100,8.23,CC,1693957063
69,isafjordur,66.0755,-23.124,12.1,91,89,7.63,IS,1693957063
70,minas de marcona,-15.2119,-75.1103,13.62,84,67,4.94,PE,1693957073
71,hadibu,12.65,54.0333,25.93,84,98,3.28,YE,1693957081
72,montaigu,46.9767,-1.3085,20.44,50,62,1.33,FR,1693957654
73,karatas,36.582,35.3701,24.08,61,0,1.17,TR,1693957654
74,rudbar,30.15,62.6,24.63,19,0,4.02,AF,1693957654
75,togur,58.3631,82.8265,9.98,98,100,3.3,RU,1693957654
76,uturoa,-16.7333,-151.4333,25.02,83,85,10.6,PF,1693957083
77,murashi,59.3999,48.9615,9.65,93,81,2.25,RU,1693957654
78,haapsalu,58.9431,23.5414,13.84,86,46,5.64,EE,1693957655
79,keflavik,64.0049,-22.5624,11.95,93,100,10.29,IS,1693957112
80,ciudad lazaro cardenas,17.9583,-102.2,28.83,73,100,2.36,MX,1693957064
81,manokwari,-0.8667,134.0833,26.77,78,57,0.1,ID,1693957655
82,khandyga,62.6667,135.6,11.81,60,100,2.05,RU,1693957094
83,papatowai,-46.5619,169.4708,16.08,57,79,0.93,NZ,1693957082
84,geneina,13.45,22.45,22.38,75,100,0.98,SD,1693957655
85,susuman,62.7833,148.1667,9.61,46,95,0.87,RU,1693957070
86,port alfred,-33.5906,26.891,10.1,74,13,2.24,ZA,1693957064
87,saint-pierre,-21.3393,55.4781,19.82,40,0,4.63,RE,1693957071
88,college,64.8569,-147.8028,15.04,76,100,3.6,US,1693957066
89,capitan bado,-23.2667,-55.5333,17.8,66,100,3.63,PY,1693957656
90,karratha,-20.7377,116.8463,20.86,58,44,0.58,AU,1693957092
91,at taj,24.2049,23.2857,26.66,22,0,2.23,LY,1693957111
92,santa maria,-29.6842,-53.8069,10.61,93,0,2.06,BR,1693957571
93,adana,36.985,35.2881,24.01,83,40,2.06,TR,1693957656
94,whitehorse,60.7161,-135.0538,17.23,51,75,1.54,CA,1693956900
95,nemuro,43.3236,145.575,16.94,98,100,5.81,JP,1693957109
96,afaahiti,-17.75,-149.2833,26.93,89,100,10.63,PF,1693957104
97,balykchy,42.4557,76.1861,11.12,65,1,0.15,KG,1693957656
98,key west,24.5557,-81.7826,31.0,68,100,4.63,US,1693957656
99,edinburgh of the seven seas,-37.0676,-12.3116,14.21,85,100,14.92,SH,1693957065
100,yuzhno-kurilsk,44.0306,145.8556,19.07,93,100,2.42,RU,1693957125
101,tremp,42.167,0.8949,22.04,60,41,1.69,ES,1693957657
102,qingdao,36.0986,120.3719,22.78,88,0,3.0,CN,1693957657
103,wailua homesteads,22.0669,-159.378,28.96,73,0,4.63,US,1693957071
104,mont-dore,-22.2833,166.5833,25.99,99,92,4.29,NC,1693957657
105,el granada,37.5027,-122.4694,29.94,73,75,9.26,US,1693957657
106,macau,22.2006,113.5461,30.48,84,40,1.54,MO,1693957595
107,blackmans bay,-43.0167,147.3167,12.07,66,97,3.64,AU,1693957061
108,coahuayana de hidalgo,18.7,-103.6583,29.02,81,94,2.75,MX,1693957658
109,fort bragg,35.139,-79.006,33.75,59,0,2.06,US,1693957658
110,uliastay,47.7417,96.8444,10.13,89,100,1.44,MN,1693957658
111,mana,5.6592,-53.7767,26.18,84,10,4.16,GF,1693957658
112,diego de almagro,-26.3667,-70.05,16.69,33,32,1.54,CL,1693957658
113,popondetta,-8.7537,148.2534,32.15,52,10,1.1,PG,1693957658
114,nha trang,12.25,109.1833,28.0,83,100,1.19,VN,1693957562
115,ariquemes,-9.9133,-63.0408,29.9,30,33,1.48,BR,1693957658
116,hilo,19.7297,-155.09,31.27,75,20,5.66,US,1693957065
117,gijang,35.2442,129.2139,25.85,79,66,6.94,KR,1693957659
118,plyeshchanitsy,54.4222,27.8331,14.43,92,71,3.18,BY,1693957659
119,hermanus,-34.4187,19.2345,7.11,74,26,6.36,ZA,1693957063
120,tralee,52.2704,-9.7026,16.18,92,60,4.17,IE,1693956965
121,rovaniemi,66.5,25.7167,6.67,87,0,2.06,FI,1693957369
122,dudinka,69.4058,86.1778,2.57,78,79,1.84,RU,1693957069
123,yellowknife,62.456,-114.3525,16.34,54,75,2.57,CA,1693957069
124,puerto ayora,-0.7393,-90.3518,24.19,90,45,2.24,EC,1693957069
125,st. john's,47.5649,-52.7093,17.93,97,100,1.03,CA,1693956857
126,brookings,44.3114,-96.7984,18.58,94,100,7.2,US,1693957659
127,jucas,-6.5253,-39.5275,28.94,34,24,2.02,BR,1693957660
128,gazojak,41.1875,61.4036,20.01,36,20,4.59,TM,1693957660
129,rio preto da eva,-2.6994,-59.6997,28.65,38,35,0.88,BR,1693957660
130,udomlya,57.8794,34.9925,13.5,90,70,3.95,RU,1693957660
131,george town,5.4112,100.3354,26.64,95,20,1.54,MY,1693957659
132,galle,6.0367,80.217,26.56,84,100,4.13,LK,1693957087
133,iqaluit,63.7506,-68.5145,3.85,80,75,4.63,CA,1693957069
134,pirapora,-17.345,-44.9419,27.97,45,57,1.05,BR,1693957660
135,gadzhiyevo,69.2551,33.3362,7.4,84,88,5.14,RU,1693957090
136,petropavlovsk-kamchatsky,53.0452,158.6483,12.33,71,0,1.0,RU,1693957076
137,horta,38.5333,-28.6333,22.23,78,68,1.79,PT,1693957113
138,acajutla,13.5928,-89.8275,27.78,79,95,0.62,SV,1693957661
139,sao jose da coroa grande,-8.8978,-35.1478,23.9,80,10,4.31,BR,1693957105
140,remire-montjoly,4.9167,-52.2667,27.02,78,0,1.54,GF,1693957078
141,newbiggin-by-the-sea,55.1853,-1.5147,16.66,96,100,1.54,GB,1693957661
142,vila velha,-20.3297,-40.2925,24.97,87,75,7.2,BR,1693957117
143,weno,7.4515,151.8468,28.97,84,100,2.57,FM,1693957095
144,siwa oasis,29.2041,25.5195,29.48,28,0,2.45,EG,1693957661
145,holualoa,19.6228,-155.9522,27.91,71,20,6.17,US,1693956818
146,mocksville,35.894,-80.5614,30.22,74,4,1.53,US,1693957661
147,garoowe,8.4054,48.4845,28.48,37,64,10.24,SO,1693957661
148,kandahar,31.0,65.75,20.8,18,0,1.92,AF,1693957661
149,tanda,26.55,82.65,25.6,87,96,2.68,IN,1693957662
150,bardai,11.65,7.2333,21.98,84,23,2.43,NG,1693957662
151,georgetown,5.4112,100.3354,26.64,97,20,1.54,MY,1693956937
152,east london,-33.0153,27.9116,13.89,57,26,8.98,ZA,1693957118
153,talnakh,69.4865,88.3972,2.34,77,28,0.05,RU,1693957074
154,miyako,39.6367,141.9525,22.64,96,100,1.81,JP,1693957662
155,quellon,-43.1167,-73.6167,9.14,93,100,3.6,CL,1693957097
156,happy valley-goose bay,53.3168,-60.3315,21.17,49,75,2.06,CA,1693957101
157,altay,47.8667,88.1167,10.03,56,26,1.78,CN,1693957116
158,tarko-sale,64.9225,77.785,6.67,70,80,1.34,RU,1693957662
159,saint-galmier,45.5833,4.3167,20.79,69,0,1.79,FR,1693957663
160,ust-nera,64.5667,143.2,8.58,57,86,1.69,RU,1693957073
161,kruisfontein,-34.0033,24.7314,8.21,74,23,4.57,ZA,1693957073
162,tambopata,-12.7333,-69.1833,25.94,83,20,0.0,PE,1693957663
163,goedereede,51.8175,3.9806,22.0,74,7,3.76,NL,1693957663
164,kolonia,50.9333,6.95,21.57,70,0,0.51,DE,1693957450
165,xai-xai,-25.0519,33.6442,21.76,87,6,7.24,MZ,1693957663
166,salalah,17.0151,54.0924,26.05,89,20,1.54,OM,1693957663
167,maintirano,-18.0667,44.0167,23.13,81,6,1.6,MG,1693957663
168,susice,49.2311,13.5202,14.68,82,9,1.51,CZ,1693957663
169,kingscliff,-28.2667,153.5667,24.95,50,55,4.12,AU,1693957664
170,vorgashor,67.5833,63.95,8.09,67,46,3.67,RU,1693957072
171,leo,11.1,-2.1,23.12,87,97,1.65,BF,1693957664
172,kirakira,-10.4544,161.9205,28.42,78,55,6.45,SB,1693957664
173,flin flon,54.7682,-101.865,15.91,33,40,3.09,CA,1693957113
174,galliano,29.4422,-90.2992,32.0,58,0,1.54,US,1693957089
175,turpan,42.9333,89.1667,24.5,31,99,0.64,CN,1693957664
176,qaqortoq,60.7167,-46.0333,6.31,99,100,2.33,GL,1693957086
177,leh,34.1667,77.5833,10.9,48,1,1.82,IN,1693957664
178,sechura,-5.5569,-80.8222,21.99,72,29,7.6,PE,1693957664
179,punta arenas,-53.15,-70.9167,0.62,86,30,6.5,CL,1693957465
180,vilyuchinsk,52.9306,158.4028,15.15,61,37,2.51,RU,1693957665
181,port hedland,-20.3167,118.5667,17.03,94,64,2.06,AU,1693957067
182,gamay,12.3854,125.2979,29.51,69,99,1.22,PH,1693957126
183,fort st. john,56.2499,-120.8529,13.94,47,75,5.14,CA,1693957102
184,lebu,-37.6167,-73.65,11.38,95,100,3.83,CL,1693957065
185,nouadhibou,20.931,-17.0347,25.99,53,23,7.2,MR,1693957122
186,palanga,55.9175,21.0686,18.01,88,0,2.57,LT,1693957665
187,isola di capo rizzuto,38.96,17.0933,22.47,72,94,8.64,IT,1693957665
188,germantown,39.1732,-77.2717,33.1,61,0,0.45,US,1693957665
189,chadron,42.8294,-102.9999,20.82,46,0,5.66,US,1693957666
190,fort mcmurray,56.7268,-111.381,16.77,39,0,5.14,CA,1693957427
191,constantia,44.1833,28.65,21.5,60,81,7.29,RO,1693957666
192,colonia,50.9333,6.95,22.12,70,0,0.51,DE,1693957071
193,vorkuta,67.5,64.0,8.38,67,53,3.66,RU,1693957094
194,vadso,70.0744,29.7487,6.49,87,34,3.6,NO,1693957093
195,prince rupert,54.3161,-130.3201,14.05,90,100,5.14,CA,1693957666
196,tura,25.5198,90.2201,24.73,91,78,1.49,IN,1693957667
197,shingu,33.7333,135.9833,24.47,91,77,0.66,JP,1693957084
198,lazaro cardenas,17.9583,-102.2,27.72,83,100,2.55,MX,1693957667
199,labytnangi,66.6572,66.4183,6.39,78,39,2.3,RU,1693957667
200,carnarvon,-24.8667,113.6333,18.22,69,12,8.36,AU,1693957097
201,vila franca do campo,37.7167,-25.4333,21.23,83,45,7.43,PT,1693957127
202,nantucket,41.2835,-70.0995,25.08,93,0,3.09,US,1693957099
203,enewetak,11.3474,162.3373,28.95,74,99,2.53,MH,1693957069
204,tierralta,8.1736,-76.0592,26.15,92,43,2.09,CO,1693957667
205,tandil,-37.3217,-59.1332,5.38,62,88,2.97,AR,1693957668
206,san juan de miraflores,-12.1629,-76.9635,20.65,77,51,3.04,PE,1693957668
207,mogadishu,2.0371,45.3438,25.07,90,60,8.42,SO,1693956903
208,tofol,5.3248,163.0078,29.88,70,75,1.54,FM,1693957079
209,obidos,-1.9175,-55.5181,28.74,45,20,1.79,BR,1693957668
210,labrador city,52.9463,-66.9114,18.95,59,75,2.57,CA,1693957564
211,severskaya,44.8541,38.6769,18.18,91,76,1.29,RU,1693957668
212,calvinia,-31.4707,19.776,3.39,72,49,1.36,ZA,1693957668
213,klaksvik,62.2266,-6.589,11.51,81,73,4.3,FO,1693957668
214,moengo,5.6167,-54.4,25.21,83,16,1.74,SR,1693957669
215,katsuura,35.1333,140.3,26.97,79,100,8.39,JP,1693957082
216,cabo san lucas,22.8909,-109.9124,34.61,62,0,6.17,MX,1693957598
217,saipan,15.1355,145.701,27.39,83,75,1.54,MP,1693957091
218,polyarnyy,69.1989,33.4478,7.78,83,88,4.61,RU,1693957669
219,yanchep,-31.55,115.6833,15.9,62,99,7.68,AU,1693957123
220,tezu,27.9167,96.1667,24.69,74,12,2.1,IN,1693957669
221,choibalsan,48.0667,114.5,23.39,36,65,4.31,MN,1693957082
222,parintins,-2.6283,-56.7358,28.99,51,81,0.78,BR,1693957669
223,longyearbyen,78.2186,15.6401,4.91,93,75,4.12,SJ,1693956896
224,abu al matamir,30.9102,30.1744,26.27,77,0,3.49,EG,1693957669
225,fukuecho,32.6881,128.8419,27.2,78,75,6.17,JP,1693957670
226,san patricio,28.017,-97.5169,34.4,55,0,6.26,US,1693957100
227,gulma,12.6423,4.3555,26.73,67,25,3.8,NG,1693957670
228,jiayuguan,39.8167,98.3,19.52,39,70,10.73,CN,1693957670
229,cold lake,54.4502,-110.2017,14.97,51,75,4.63,CA,1693957670
230,santa marta de ortigueira,43.6833,-7.85,20.14,83,98,1.9,ES,1693957670
231,vila do maio,15.1333,-23.2167,27.44,78,100,7.26,CV,1693957670
232,port mathurin,-19.6833,63.4167,22.67,72,16,7.44,MU,1693957670
233,mount isa,-20.7333,139.5,26.87,19,75,7.2,AU,1693957671
234,motygino,58.1831,94.7592,12.18,98,100,1.63,RU,1693957671
235,mount pearl,47.5166,-52.7813,17.47,97,100,1.03,CA,1693956861
236,hami,42.8,93.45,21.48,40,100,6.02,CN,1693957671
237,zyrya,40.3661,50.2917,24.05,61,0,1.43,AZ,1693957671
238,asha,54.9973,57.2722,11.21,97,98,1.79,RU,1693957671
239,arno,60.1167,18.6333,15.44,71,62,5.66,SE,1693957671
240,ola,59.5833,151.2833,11.21,68,99,5.14,RU,1693957108
241,ugurludag,40.4463,34.4526,18.62,85,4,2.86,TR,1693957671
242,mildura,-34.2,142.15,16.71,51,2,7.53,AU,1693957671
243,kotlas,61.2611,46.6556,15.59,70,100,1.34,RU,1693957672
244,mongu,-15.2484,23.1274,17.75,32,0,1.53,ZM,1693957122
245,trujillo,-8.116,-79.03,20.98,83,49,4.63,PE,1693957306
246,pisco,-13.7,-76.2167,19.03,82,0,7.72,PE,1693957104
247,kingston,17.997,-76.7936,30.53,85,20,8.75,JM,1693957625
248,chinsali,-10.5414,32.0816,17.24,55,0,0.78,ZM,1693957672
249,ponta delgada,37.7333,-25.6667,21.4,83,40,6.69,PT,1693957672
250,rio grande,-32.035,-52.0986,10.06,72,2,4.36,BR,1693957665
251,maun,-19.9833,23.4167,17.98,22,0,1.03,BW,1693957672
252,kodiak,57.79,-152.4072,11.73,82,0,2.57,US,1693957672
253,nuuk,64.1835,-51.7216,6.34,87,100,10.29,GL,1693957095
254,santa terezinha,-29.9002,-50.0904,13.3,75,80,2.64,BR,1693957673
255,cova figueira,14.8905,-24.2934,24.19,78,96,7.08,CV,1693957673
256,lamu,-2.2717,40.902,25.12,86,77,5.78,KE,1693957093
257,nova vicosa,-17.8919,-39.3719,23.64,84,58,4.6,BR,1693957096
258,kavaratti,10.5669,72.642,27.21,82,100,6.0,IN,1693957116
259,mungwi,-10.1732,31.3694,17.75,52,3,0.93,ZM,1693957673
260,pedernales,18.0384,-71.744,28.36,77,84,3.95,DO,1693957673
261,hamilton,39.1834,-84.5333,29.93,68,75,2.57,US,1693957649
262,yarovoye,52.9273,78.58,10.97,62,96,3.44,RU,1693957673
263,lethem,3.3803,-59.7968,28.03,83,40,3.09,GY,1693957674
264,basoko,1.2391,23.616,20.9,90,95,0.61,CD,1693957674
265,el nido,11.1858,119.3956,28.02,80,100,1.61,PH,1693957674
266,tshabong,-26.05,22.45,8.28,37,86,5.4,BW,1693957674
267,kailua-kona,19.6406,-155.9956,29.98,71,20,6.17,US,1693957065
268,badger,64.8,-147.5333,14.99,73,75,3.6,US,1693957090
269,azacualpa,15.3433,-88.5514,30.36,92,87,0.67,HN,1693957674
270,westport,41.1415,-73.3579,30.05,77,0,2.57,US,1693957039
271,shajiang,26.7825,119.9669,24.9,92,99,1.97,CN,1693957674
272,champerico,14.3,-91.9167,23.3,71,67,2.0,GT,1693957124
273,bonthe,7.5264,-12.505,25.14,84,99,3.5,SL,1693957119
274,port augusta,-32.5,137.7667,18.74,36,0,7.76,AU,1693957675
275,nar'yan-mar,67.6713,53.087,13.11,91,100,5.53,RU,1693957675
276,pallasovka,50.05,46.8833,20.57,43,100,0.98,RU,1693957675
277,murun-kuren,49.6342,100.1625,13.74,92,93,1.92,MN,1693957675
278,longboat key,27.4125,-82.659,31.8,53,100,3.6,US,1693957675
279,abepura,-2.6333,140.5833,27.45,69,20,1.03,ID,1693957675
280,acarau,-2.8856,-40.12,26.03,81,7,7.86,BR,1693957676
281,melito di porto salvo,37.9222,15.7714,25.3,53,20,8.23,IT,1693957676
282,taoudenni,22.6783,-3.9836,31.6,47,82,4.05,ML,1693957676
283,soufriere,13.8562,-61.0566,28.78,80,40,6.69,LC,1693957676
284,praia da vitoria,38.7333,-27.0667,22.14,78,40,11.15,PT,1693957676
285,phan rang-thap cham,11.5667,108.9833,26.87,80,100,0.89,VN,1693957676
286,t'ongch'on-up,38.9539,127.8917,22.71,91,68,2.3,KP,1693957676
287,newman,37.3138,-121.0208,33.9,28,0,2.68,US,1693957383
288,richards bay,-28.783,32.0377,18.67,71,100,8.13,ZA,1693957676
289,buka,40.8108,69.1986,13.99,34,8,1.7,UZ,1693957099
290,naze,28.3667,129.4833,27.51,74,88,2.65,JP,1693957092
291,queenstown,-31.8976,26.8753,3.57,48,38,2.38,ZA,1693957088
292,hovd,48.0056,91.6419,11.76,35,26,2.07,MN,1693957677
293,presov,49.1667,21.25,12.43,79,7,1.89,SK,1693957677
294,igarka,67.4667,86.5833,4.05,72,0,1.88,RU,1693957677
295,magdalena de kino,30.6333,-110.95,33.71,19,0,4.09,MX,1693957677
296,chonchi,-42.6128,-73.8092,8.95,98,100,4.67,CL,1693957677
297,morden,49.1919,-98.1014,17.79,72,100,5.66,CA,1693957604
298,"laikit, laikit ii (dimembe)",1.4792,124.9735,25.47,78,40,2.06,ID,1693957677
299,urengoy,65.9667,78.3667,6.73,77,43,1.34,RU,1693957678
300,durango,24.8333,-104.8333,29.45,21,5,7.31,MX,1693957611
301,bairnsdale,-37.8333,147.6167,14.47,57,1,0.89,AU,1693957241
302,nova sintra,14.8667,-24.7167,23.95,77,98,8.72,CV,1693957678
303,wabag,-5.4781,143.7021,19.02,72,42,1.47,PG,1693957678
304,porac,15.1,120.5,24.67,100,40,1.03,PH,1693957678
305,tolanaro,-25.0319,46.9987,22.04,78,0,8.23,MG,1693957678
306,manismata,-2.4667,111.0333,26.37,75,90,2.41,ID,1693957678
307,utrik,11.2278,169.8474,28.45,74,97,5.69,MH,1693957101
308,alice springs,-23.7,133.8833,19.75,26,0,1.54,AU,1693957678
309,clearwater,27.9659,-82.8001,31.96,61,0,4.47,US,1693957029
310,rocha,-34.4833,-54.3333,4.39,80,23,1.83,UY,1693957679
311,juli,-16.2167,-69.45,7.85,67,100,4.18,PE,1693957679
312,konjic,43.6519,17.9614,21.49,91,1,3.03,BA,1693957679
313,el porvenir,13.7617,-87.3458,29.63,83,94,0.37,HN,1693957679
314,atar,20.5169,-13.0499,34.68,40,67,7.94,MR,1693957679
315,sao gabriel da cachoeira,-0.1303,-67.0892,26.83,57,21,1.27,BR,1693957089
316,baharly,38.4362,57.4316,24.04,23,0,3.0,TM,1693957679
317,isangel,-19.55,169.2667,26.06,69,75,1.54,VU,1693957680
318,tomatlan,19.9333,-105.25,27.49,85,68,0.87,MX,1693957680
319,teknaf,20.8624,92.3058,26.66,90,100,5.36,BD,1693957680
320,mbandaka,0.0487,18.2603,20.64,97,74,0.78,CD,1693957680
321,pont rouge,48.8833,-72.0825,25.16,78,25,2.17,CA,1693957680
322,duyun,26.2667,107.5167,21.17,86,32,1.66,CN,1693957680
323,deta,45.3889,21.2244,16.69,66,0,1.79,RO,1693957680
324,ambo,-10.1308,-76.2047,17.68,80,96,2.06,PE,1693957680
325,isoka,-10.1606,32.6335,16.79,59,0,1.0,ZM,1693957680
326,jwaneng,-24.6004,24.7303,12.74,30,72,5.72,BW,1693957681
327,axim,4.8699,-2.2405,24.19,91,96,2.97,GH,1693957681
328,ugoofaaru,5.6667,73.0,27.53,78,100,6.77,MV,1693957681
329,russellville,35.2784,-93.1338,34.08,54,0,2.57,US,1693957681
330,carutapera,-1.195,-46.02,26.13,77,3,3.75,BR,1693957681
331,bestobe,52.4994,73.0975,9.72,75,100,4.58,KZ,1693957681
332,grand forks,47.9417,-97.4337,18.96,62,75,10.29,US,1693957681
333,karpinsk,59.7654,60.0085,5.58,81,2,1.12,RU,1693957682
334,kerikeri,-35.2268,173.9474,17.17,93,19,2.74,NZ,1693957682
335,klyuchi,52.2667,79.1667,8.71,72,87,2.64,RU,1693957106
336,newnham,-41.3833,147.1333,11.84,87,100,6.69,AU,1693957682
337,piti village,13.4626,144.6933,30.49,81,40,4.63,GU,1693957682
338,cambria,35.5641,-121.0808,30.41,82,28,1.34,US,1693957682
339,akureyri,65.6835,-18.0878,13.96,58,0,8.23,IS,1693957125
340,mount gambier,-37.8333,140.7667,12.41,60,40,5.59,AU,1693957106
341,la passe,45.5549,-0.8967,23.13,59,46,3.68,FR,1693957682
342,motueka,-41.1333,173.0167,14.86,84,65,2.2,NZ,1693957683
343,saynshand,44.8824,110.1163,24.66,25,54,5.03,MN,1693957683
344,arraial do cabo,-22.9661,-42.0278,21.26,91,97,11.33,BR,1693957091
345,willemstad,12.1084,-68.9335,29.95,74,20,7.2,CW,1693957547
346,muravlenko,63.7898,74.523,6.45,76,66,3.59,RU,1693957683
347,north bend,43.4065,-124.2243,22.91,63,0,8.23,US,1693957683
348,puerto baquerizo moreno,-0.9,-89.6,23.09,79,50,5.45,EC,1693957683
349,kerema,-7.9631,145.7785,26.72,85,73,2.62,PG,1693957099
350,porto novo,6.4965,2.6036,25.9,93,97,1.96,BJ,1693957683
351,galesong,-5.3166,119.3661,26.01,61,25,3.45,ID,1693957684
352,kuching,1.55,110.3333,28.35,89,40,1.54,MY,1693957684
353,borkum,53.5809,6.6915,19.97,89,30,4.62,DE,1693957684
354,saquarema,-22.92,-42.5103,21.2,91,94,8.12,BR,1693957684
355,coquimbo,-29.9533,-71.3436,13.85,88,20,1.54,CL,1693957090
356,vostochnyy,55.8167,37.8667,14.91,69,100,3.04,RU,1693957684
357,dompu,-8.5356,118.4622,25.61,71,54,2.43,ID,1693957684
358,minas,-34.3759,-55.2377,3.67,83,20,3.49,UY,1693957432
359,island harbour,50.724,-1.2758,17.33,95,22,0.1,GB,1693957685
360,lerwick,60.1545,-1.1494,12.0,78,37,4.01,GB,1693957685
361,soller,39.7662,2.7152,25.57,49,1,0.45,ES,1693957685
362,papao,-17.75,-149.55,27.82,91,100,11.77,PF,1693957101
363,sao vicente,-23.9631,-46.3919,21.1,26,100,0.45,BR,1693957685
364,iglino,54.8324,56.4126,10.05,93,86,0.85,RU,1693957685
365,benghazi,32.1167,20.0667,25.38,56,12,4.02,LY,1693957103
366,vilyuysk,63.7553,121.6247,2.24,82,100,4.1,RU,1693957685
367,humaita,-7.5061,-63.0208,28.98,27,11,0.85,BR,1693957685
368,xam nua,20.4197,104.0439,20.55,98,99,0.21,LA,1693957686
369,talcahuano,-36.7167,-73.1167,10.82,93,100,9.26,CL,1693957686
370,hwange,-18.3693,26.5019,20.65,38,0,1.43,ZW,1693957686
371,amga,60.8953,131.9608,12.88,57,97,2.8,RU,1693957114
372,kone,-21.0595,164.8658,25.95,62,100,2.92,NC,1693957114
373,paita,-5.0892,-81.1144,20.47,83,32,7.62,PE,1693957686
374,maryborough,-25.5333,152.7,25.45,49,31,1.98,AU,1693957686
375,tazovsky,67.4667,78.7,4.06,89,13,2.35,RU,1693957686
376,princeville,45.7668,-61.2985,19.86,93,100,5.14,CA,1693957686
377,teofilo otoni,-17.8575,-41.5053,22.2,85,4,2.44,BR,1693957686
378,onega,63.9061,38.1404,10.01,95,100,3.22,RU,1693957687
379,haiku-pauwela,20.9219,-156.3051,30.01,59,40,9.77,US,1693957687
380,garching an der alz,48.1333,12.6,14.85,90,3,1.69,DE,1693957687
381,brisas de zicatela,15.8369,-97.0419,29.29,54,75,0.0,MX,1693957687
382,harlan,41.653,-95.3255,28.03,30,1,7.42,US,1693957562
383,wenchang,30.904,118.4887,25.98,85,8,3.81,CN,1693957421
384,christchurch,-43.5333,172.6333,20.11,56,86,3.6,NZ,1693956824
385,mongoumba,3.6415,18.5936,21.13,96,96,0.61,CF,1693957687
386,callao,-12.0667,-77.15,21.51,77,100,6.69,PE,1693957688
387,pokrovsk,48.282,37.1758,14.58,69,0,2.98,UA,1693957688
388,yankton,42.8711,-97.3973,21.18,68,75,9.26,US,1693957688
389,estacion santa engracia,24.0159,-99.2015,37.17,32,3,7.39,MX,1693957688
390,swakopmund,-22.6833,14.5333,11.1,80,76,1.34,NA,1693957102
391,charters towers,-20.1,146.2667,25.17,41,4,5.94,AU,1693957688
392,naryn,41.4287,75.9911,6.95,35,6,2.46,KG,1693957688
393,bikenibeu village,1.3673,173.1241,31.98,70,20,5.14,KI,1693957688
394,khlong luang,14.0647,100.6458,28.33,80,20,2.57,TH,1693957688
395,novyy urgal,51.0736,132.5642,11.98,64,85,0.96,RU,1693957689
396,guatrache,-37.6678,-63.5302,10.11,46,100,6.8,AR,1693957091
397,bangar,16.8936,120.4243,26.88,86,100,2.0,PH,1693957689
398,totness,5.8833,-56.3167,26.91,81,7,4.57,SR,1693957689
399,howrah,22.5892,88.3103,28.0,94,75,2.06,IN,1693957112
400,savanna-la-mar,18.219,-78.1332,28.97,84,97,0.66,JM,1693957689
401,suva,-18.1416,178.4415,26.71,65,20,3.6,FJ,1693956934
402,pindi gheb,33.2402,72.2661,31.21,36,0,1.94,PK,1693957689
403,cestos city,5.46,-9.5828,25.07,85,44,3.13,LR,1693957689
404,cururupu,-1.8283,-44.8683,25.26,84,13,2.52,BR,1693957690
405,roza,54.9163,61.4586,10.52,89,60,1.81,RU,1693957690
406,kapa'a,22.0752,-159.319,29.71,72,0,4.63,US,1693957690
407,okhotsk,59.3833,143.3,9.9,86,100,6.29,RU,1693957690
408,mata-utu,-13.2816,-176.1745,27.63,71,52,8.94,WF,1693957680
409,korla,41.7597,86.1469,20.28,24,22,3.77,CN,1693957093
410,guadalajara,20.6667,-103.3333,28.87,39,40,3.09,MX,1693957504
411,le moule,16.3332,-61.3473,27.02,100,47,4.83,GP,1693957690
412,ambon,-3.6954,128.1814,27.08,78,40,3.09,ID,1693957690
413,nelson bay,-32.7167,152.15,18.95,48,0,1.34,AU,1693957690
414,alesund,62.4723,6.1549,12.09,84,75,1.54,NO,1693957691
415,al burayqah,30.4062,19.5739,25.72,62,20,4.21,LY,1693957691
416,six-fours-les-plages,43.0938,5.84,24.14,62,7,1.34,FR,1693957691
417,rongelap,11.1635,166.8941,28.38,78,90,5.86,MH,1693957691
418,santa maria del oro,25.9333,-105.3667,31.88,18,6,8.39,MX,1693957691
419,puerto san jose,13.9256,-90.8244,28.58,71,56,1.82,GT,1693957691
420,gizo,-8.103,156.8419,28.16,77,90,3.6,SB,1693957691
421,chulakkurgan,43.765,69.1814,15.11,49,94,1.88,KZ,1693957691
422,betio village,1.358,172.9211,32.02,75,49,7.32,KI,1693957692
423,itaituba,-4.2761,-55.9836,27.61,53,58,0.23,BR,1693957692
424,pale,43.8161,18.5694,12.86,100,75,1.03,BA,1693957692
425,mili,6.0815,171.735,28.81,75,66,5.33,MH,1693957692
426,al bawiti,28.3492,28.8659,26.85,30,0,1.48,EG,1693957692
427,otjimbingwe,-22.35,16.1333,18.6,22,73,1.57,NA,1693957692
428,mabaruma,8.2,-59.7833,26.35,82,39,2.29,GY,1693957692
429,egilsstadir,65.2653,-14.3948,11.95,58,0,2.06,IS,1693957120
430,saldanha,-33.0117,17.9442,5.03,66,1,1.53,ZA,1693957692
431,lorengau,-2.0226,147.2712,29.09,72,57,4.05,PG,1693957693
432,berdigestyakh,62.0989,126.6992,7.92,87,100,3.9,RU,1693957693
433,dryden,49.7833,-92.7503,14.16,94,100,4.63,CA,1693957693
434,padangsidempuan,1.3667,99.2667,21.48,97,100,0.96,ID,1693957693
435,crane,31.3974,-102.3501,39.14,14,4,2.36,US,1693957693
436,ancud,-41.8697,-73.8203,9.1,90,100,9.98,CL,1693957693
437,laguna,38.421,-121.4238,34.19,32,0,1.54,US,1693957094
438,severo-yeniseyskiy,60.3725,93.0408,10.93,97,100,1.82,RU,1693957693
439,okha,53.5739,142.9478,14.26,83,82,7.49,RU,1693957101
440,tongchuanshi,35.0806,109.0897,20.47,82,23,3.99,CN,1693957694
441,ulladulla,-35.35,150.4667,15.43,34,0,1.89,AU,1693957694
442,murghob,38.1702,73.9667,6.13,34,0,1.0,TJ,1693957694
443,belyy yar,53.6039,91.3903,10.94,87,0,2.0,RU,1693957694
444,veraval,20.9,70.3667,26.14,83,7,3.99,IN,1693957694
445,samraong,12.4526,105.5873,24.61,97,100,1.25,KH,1693957694
446,northam,51.0333,-4.2167,19.61,83,45,1.69,GB,1693957694
447,sault ste. marie,46.5168,-84.3333,29.16,70,0,2.57,CA,1693957146
448,fortuna,40.5982,-124.1573,21.63,70,20,6.69,US,1693957695
449,freetown,8.484,-13.2299,25.03,84,100,3.89,SL,1693957398
450,kencong,-8.2833,113.3667,23.72,78,9,0.18,ID,1693957695
451,antonio enes,-16.2325,39.9086,22.47,84,5,2.48,MZ,1693957695
452,twante,16.7167,95.9333,25.07,96,100,2.11,MM,1693957695
453,inarajan village,13.2736,144.7484,30.55,86,91,1.69,GU,1693957695
454,wanning,18.8003,110.3967,27.5,89,98,2.77,CN,1693957695
455,sinan,34.8262,126.1086,26.06,85,0,3.63,KR,1693957696
456,cockburn town,21.4612,-71.1419,29.45,72,66,0.31,TC,1693957696
457,concepcion,-36.827,-73.0498,10.89,93,100,9.26,CL,1693957696
458,olyokminsk,60.3736,120.4264,5.29,82,98,4.15,RU,1693957113
459,sungailiat,-1.85,106.1333,26.64,79,100,4.32,ID,1693957696
460,ippy,6.2679,21.2247,18.96,98,92,1.04,CF,1693957696
461,villa de soto,-30.8552,-64.9995,13.97,44,82,7.03,AR,1693957696
462,atotonilco el alto,20.55,-102.5167,25.46,54,36,2.64,MX,1693957696
463,broken hill,-31.95,141.4333,18.38,31,0,4.99,AU,1693957648
464,kill devil hills,36.0307,-75.676,28.0,79,0,1.54,US,1693957697
465,qamdo,31.1667,97.2333,5.04,82,95,1.11,CN,1693957697
466,sejenane,37.0572,9.2381,18.53,74,0,1.53,TN,1693957697
467,pekanbaru,0.5333,101.45,26.18,100,100,1.54,ID,1693957697
468,tamanrasset,22.785,5.5228,25.95,31,40,2.57,DZ,1693957697
469,kirn,49.7833,7.45,18.45,80,13,1.63,DE,1693957697
470,aldan,58.6031,125.3894,8.23,82,100,2.93,RU,1693957697
471,miercurea nirajului,46.5333,24.8,10.75,69,0,1.45,RO,1693957698
472,bel ombre,-4.6167,55.4167,26.91,78,40,6.69,SC,1693957698
473,midvagur,62.0511,-7.1939,11.46,76,100,3.6,FO,1693957698
474,ciudad madero,22.2667,-97.8333,32.11,66,0,6.59,MX,1693957570
475,taourirt,34.4073,-2.8973,23.23,52,86,0.86,MA,1693957698
476,nadym,65.5333,72.5167,6.97,68,83,1.65,RU,1693957698
477,tsiombe,-25.3,45.4833,19.75,71,0,2.09,MG,1693957114
478,cabugao,17.7931,120.4578,26.92,85,100,3.05,PH,1693957698
479,puerto real,36.5282,-6.1901,21.25,81,60,1.88,ES,1693957698
480,ta`u,-14.2336,-169.5144,26.93,69,97,6.62,AS,1693957118
481,launceston,-41.45,147.1667,12.11,87,100,6.69,AU,1693957509
482,dakingari,11.6451,4.0605,24.6,83,18,2.17,NG,1693957699
483,guerrero negro,27.9769,-114.0611,22.86,64,0,7.36,MX,1693957699
484,puerto armuelles,8.2833,-82.8667,28.99,83,69,1.34,PA,1693957699
485,ad dilam,23.9915,47.1627,33.23,22,4,1.18,SA,1693957699
486,hasaki,35.7333,140.8333,27.39,85,100,3.21,JP,1693957699
487,fauske,67.2588,15.3918,10.02,84,100,9.96,NO,1693957699
488,lucapa,-8.4192,20.7447,21.25,70,8,2.34,AO,1693957699
489,loukhi,66.0764,33.0381,7.55,77,66,2.44,RU,1693957699
490,geraldton,-28.7667,114.6,16.23,82,100,5.66,AU,1693957650
491,shimoda,34.6667,138.95,28.2,75,99,5.43,JP,1693957700
492,nanao,37.05,136.9667,26.39,93,80,2.1,JP,1693957700
493,pajapan,18.25,-94.7,26.87,81,32,2.52,MX,1693957700
494,petrovsk-zabaykal'skiy,51.273,108.843,16.82,86,99,0.22,RU,1693957700
495,usinsk,65.9939,57.5281,11.35,92,93,6.93,RU,1693957700
496,san carlos,9.6612,-68.5827,25.19,86,36,0.73,VE,1693957636
497,great falls,47.5002,-111.3008,25.25,35,40,2.57,US,1693957679
498,tayu,-6.5397,111.0518,25.03,64,93,4.47,ID,1693957700
499,pundong,-7.9522,110.3486,23.78,77,89,2.09,ID,1693957701
500,bom jesus,-9.0744,-44.3586,25.74,34,33,1.67,BR,1693957701
501,thakhek,17.4103,104.8307,25.06,97,100,0.64,LA,1693957701
502,wynyard,-41.0,145.7167,11.47,84,73,6.08,AU,1693957613
503,mel'nikovo,56.5558,84.085,9.58,87,100,4.55,RU,1693957701
504,dahegam,23.1667,72.8167,27.87,62,16,3.6,IN,1693957701
505,dakhla,23.6848,-15.958,21.16,86,34,8.59,EH,1693957126
506,chibougamau,49.9168,-74.3659,27.79,51,0,2.57,CA,1693957701
507,margate,51.3813,1.3862,20.5,92,0,0.89,GB,1693957701
508,yerofey pavlovich,53.9667,121.9667,11.25,56,100,0.38,RU,1693957702
509,arica,-18.475,-70.3042,19.75,72,100,4.63,CL,1693957702
510,al wakrah,24.85,51.3333,32.05,69,5,1.55,QA,1693957702
511,bereznik,62.8551,42.7072,14.07,85,94,5.98,RU,1693957702
512,manzanillo,20.3433,-77.1167,28.44,77,86,2.1,CU,1693957522
513,nianzishan,47.5167,122.8833,18.99,78,14,1.92,CN,1693957702
514,bomdila,27.25,92.4,13.44,75,2,3.22,IN,1693957702
515,grafton,42.207,-71.6856,26.95,87,65,0.62,US,1693957702
516,tagta,41.6504,59.9164,18.97,45,0,5.14,TM,1693957703
517,meadow lake,34.8014,-106.5436,32.07,18,0,1.91,US,1693957703
518,flying fish cove,-10.4217,105.6791,23.82,83,100,5.14,CX,1693957703
519,pacific grove,36.6177,-121.9166,25.01,81,20,4.63,US,1693957703
520,doctor mora,21.1417,-100.3125,22.86,45,12,7.07,MX,1693957703
521,cruz del eje,-30.7264,-64.8039,14.45,43,83,6.63,AR,1693957703
522,formosa do rio preto,-11.0483,-45.1931,26.42,38,43,1.28,BR,1693957703
523,fallon,39.4735,-118.7774,28.39,31,20,1.54,US,1693957704
524,pochinok,54.4068,32.4407,14.02,68,100,3.41,RU,1693957704
525,long beach,33.767,-118.1892,26.04,76,100,4.12,US,1693957524
526,magdagachi,53.45,125.8,13.17,50,50,1.59,RU,1693957704
527,al kharijah,25.4514,30.5464,29.14,20,0,2.24,EG,1693957704
528,acapulco de juarez,16.8634,-99.8901,29.9,70,75,3.6,MX,1693957573
529,iwon-up,40.3231,128.6553,23.42,71,4,1.67,KP,1693957704
530,kushalgarh,23.199,74.4507,24.81,73,48,3.2,IN,1693957704
531,cannonvale,-20.2833,148.7,23.66,65,3,5.17,AU,1693957704
532,dubai,25.2582,55.3047,32.96,79,1,3.6,AE,1693957138
533,howard springs,-12.497,131.047,28.26,61,10,2.2,AU,1693957125
534,yung shue wan,22.2333,114.1167,29.79,77,99,3.23,HK,1693957705
535,mar del plata,-38.0023,-57.5575,7.71,72,0,1.03,AR,1693957705
536,el bolson,-41.9667,-71.5167,4.41,99,100,1.1,AR,1693957705
537,anatuya,-28.4606,-62.8347,16.57,63,39,4.49,AR,1693957705
538,conception bay south,47.4999,-52.9981,16.62,97,97,1.05,CA,1693957578
539,arawa,-6.2132,155.5367,29.97,69,100,2.95,PG,1693957705
540,lospalos,-8.5186,127.0025,23.62,66,51,4.25,TL,1693957706
541,dongyang,29.2678,120.2253,24.52,93,100,1.14,CN,1693957706
542,toliara,-23.35,43.6667,20.25,61,0,1.33,MG,1693957108
543,verkhniy baskunchak,48.2256,46.7217,20.1,50,94,6.33,RU,1693957706
544,mendaha,-1.0333,103.5833,23.35,89,100,2.02,ID,1693957706
545,znamenskoye,57.1281,73.8282,9.34,99,100,2.21,RU,1693957706
546,poronaysk,49.2167,143.1167,17.04,87,74,0.43,RU,1693957706
547,chauk,20.8833,94.8167,25.55,91,100,3.73,MM,1693957706
548,mahdia,35.5047,11.0622,24.97,62,0,9.93,TN,1693957707
549,revda,56.801,59.9303,5.49,91,10,0.99,RU,1693957707
550,daru,-9.0763,143.2092,25.81,82,92,6.59,PG,1693957707
551,illizi,26.4833,8.4667,32.89,21,6,2.05,DZ,1693957707
552,greymouth,-42.4667,171.2,14.4,84,57,5.96,NZ,1693957707
553,zeya,53.75,127.2667,13.12,56,22,1.11,RU,1693957707
554,jebba,9.1333,4.8333,22.99,94,51,1.51,NG,1693957707
555,timbiqui,2.7717,-77.6654,25.79,89,52,1.88,CO,1693957708
556,yangliuqing,39.1375,116.9997,26.97,68,0,0.48,CN,1693957708
557,lukolela,-1.0605,17.1821,20.56,96,88,0.26,CD,1693957708
558,huangmei,30.1924,116.025,26.57,80,1,3.91,CN,1693957708
559,chotila,22.4167,71.1833,25.6,79,1,4.9,IN,1693957708
560,alaghsas,17.0187,8.0168,33.26,34,9,4.67,NE,1693957708
561,lagoa,39.05,-27.9833,21.86,74,8,11.67,PT,1693957708
562,puerto ayacucho,5.6639,-67.6236,26.02,85,46,2.17,VE,1693957708
563,rikaze,29.25,88.8833,9.78,58,17,1.68,CN,1693957709
564,vanimo,-2.6741,141.3028,28.69,70,76,2.62,PG,1693957709
565,silver city,32.7701,-108.2803,31.06,16,0,3.13,US,1693957709
566,serang,-6.1149,106.1502,24.26,77,98,1.14,ID,1693957709
567,taroa,8.7058,171.2275,28.16,76,21,4.68,MH,1693957709
568,sao miguel do araguaia,-13.275,-50.1628,31.28,33,63,1.11,BR,1693957709
569,shortandy,51.7006,70.9994,8.39,73,100,3.22,KZ,1693957709
570,ilave,-16.0833,-69.6667,8.04,70,99,4.13,PE,1693957709
571,sinabang,2.4803,96.3801,24.88,90,100,4.79,ID,1693957709
572,putina,-15.4667,-69.4333,8.42,65,97,8.1,PE,1693957710
573,riosucio,5.4216,-75.7032,18.31,91,54,0.8,CO,1693957710
574,willowmore,-33.2926,23.4895,3.92,89,8,2.26,ZA,1693957710
575,uba,-21.12,-42.9428,22.08,94,70,3.14,BR,1693957710
576,rehoboth,-23.3167,17.0833,11.48,36,89,2.16,NA,1693957710
577,belmonte,-15.8631,-38.8828,23.25,85,24,3.82,BR,1693957710
578,sur,22.5667,59.5289,28.76,66,7,2.63,OM,1693957710
579,leninskoye,41.7589,69.3864,16.8,27,68,1.33,KZ,1693957710
580,larreynaga,12.6769,-86.5719,28.39,73,89,1.07,NI,1693957710
