City_ID,City,Lat,Lng,Max Temp,Humidity,Cloudiness,Wind Speed,Country,Date
0,puerto armuelles,8.2833,-82.8667,28.99,83,69,1.34,PA,1693959392
1,mao,39.8885,4.2658,23.31,78,0,3.09,ES,1693959197
2,stanley,54.868,-1.6985,15.44,94,75,1.54,GB,1693959392
3,al qadarif,14.0349,35.3834,23.1,86,100,6.6,SD,1693959392
4,taulaga,-11.0553,-171.0883,27.86,78,44,8.49,AS,1693959392
5,al bayda,32.7627,21.7551,18.45,85,27,2.74,LY,1693959392
6,albany,42.6001,-73.9662,27.55,81,70,1.69,US,1693959237
7,waitangi,-43.9535,-176.5597,13.23,77,100,3.13,NZ,1693959392
8,saidpur,25.7777,88.8917,28.39,83,85,1.15,BD,1693959393
9,sihanoukville,10.6093,103.5296,24.97,94,40,0.0,KH,1693959393
10,port-aux-francais,-49.35,70.2167,2.81,83,98,14.23,TF,1693959393
11,hawaiian paradise park,19.5933,-154.9731,28.91,66,0,5.14,US,1693959393
12,kapuskasing,49.4169,-82.4331,29.05,57,20,3.09,CA,1693959393
13,lorengau,-2.0226,147.2712,29.09,72,57,4.05,PG,1693959393
14,papao,-17.75,-149.55,27.82,90,100,11.89,PF,1693959393
15,niafunke,15.9322,-3.9906,32.83,40,96,2.47,ML,1693959393
16,invercargill,-46.4,168.35,17.23,75,56,1.34,NZ,1693959393
17,whitehorse,60.7161,-135.0538,15.57,51,75,1.54,CA,1693959394
18,betio village,1.358,172.9211,32.02,75,49,7.32,KI,1693959394
19,ust-nera,64.5667,143.2,8.58,57,86,1.69,RU,1693959394
20,yar,58.249,52.1026,12.4,89,72,0.89,RU,1693959368
21,el porvenir,13.7617,-87.3458,26.63,83,94,0.37,HN,1693959394
22,puerto natales,-51.7236,-72.4875,-1.35,83,6,2.28,CL,1693959394
23,hadibu,12.65,54.0333,26.01,84,94,3.24,YE,1693959394
24,zhuanghe,39.7008,122.9911,23.7,62,0,2.71,CN,1693959394
25,north platte,41.1239,-100.7654,20.62,53,0,7.15,US,1693959148
26,yerofey pavlovich,53.9667,121.9667,11.25,56,100,0.38,RU,1693959395
27,puerto deseado,-47.7503,-65.8938,4.15,71,76,7.18,AR,1693959395
28,margaret river,-33.95,115.0667,13.17,54,70,9.66,AU,1693959395
29,badger,64.8,-147.5333,14.99,71,20,2.06,US,1693959395
30,thompson,55.7435,-97.8558,13.09,54,40,2.06,CA,1693959395
31,forest,37.3638,-79.2897,28.83,72,0,1.54,US,1693959395
32,avarua,-21.2078,-159.775,24.03,69,100,7.2,CK,1693959234
33,la passe,45.5549,-0.8967,22.13,59,46,3.68,FR,1693959395
34,college,64.8569,-147.8028,15.04,75,100,2.06,US,1693959396
35,east london,-33.0153,27.9116,14.07,59,42,9.03,ZA,1693959396
36,posto fiscal rolim de moura,-13.0833,-62.2667,29.76,42,69,1.13,BR,1693959396
37,st. john's,47.5649,-52.7093,17.38,97,100,0.0,CA,1693959136
38,aasiaat,68.7098,-52.8699,3.55,97,100,5.02,GL,1693959396
39,tiksi,71.6872,128.8694,2.77,87,71,8.41,RU,1693959396
40,moalboal,9.9433,123.3992,28.73,74,100,0.68,PH,1693959396
41,chonchi,-42.6128,-73.8092,8.4,98,100,4.67,CL,1693959396
42,tamanrasset,22.785,5.5228,25.95,31,40,2.57,DZ,1693959396
43,blackmans bay,-43.0167,147.3167,13.07,61,97,3.64,AU,1693959397
44,bethel,41.3712,-73.414,27.72,84,0,1.54,US,1693959397
45,hurricane,37.1753,-113.2899,32.19,27,0,1.34,US,1693959171
46,gap,44.6667,6.0,9.91,81,5,1.29,FR,1693959397
47,ribeira grande,38.5167,-28.7,22.1,78,60,1.79,PT,1693959397
48,maxixe,-23.8597,35.3472,19.43,82,0,4.02,MZ,1693959397
49,tidjikja,18.5564,-11.4271,31.12,47,44,2.78,MR,1693959397
50,bulgan,48.8125,103.5347,17.36,67,98,1.1,MN,1693959397
51,qaqortoq,60.7167,-46.0333,6.18,99,100,2.68,GL,1693959397
52,isafjordur,66.0755,-23.124,12.09,91,95,7.43,IS,1693959398
53,hermanus,-34.4187,19.2345,6.56,75,30,6.22,ZA,1693959398
54,grytviken,-54.2811,-36.5092,-4.39,77,39,5.37,GS,1693959398
55,tyumentsevo,53.3224,81.498,6.83,79,57,3.02,RU,1693959398
56,adamstown,-25.066,-130.1015,19.18,86,96,10.36,PN,1693959398
57,santa cruz,-17.8,-63.1667,23.7,53,75,4.12,BO,1693959355
58,pionerskiy,54.9508,20.2275,15.97,81,2,4.74,RU,1693959398
59,bowen,-20.0167,148.2333,23.71,62,15,5.45,AU,1693959398
60,hammerfest,70.6634,23.6821,7.25,87,75,6.69,NO,1693959399
61,iqaluit,63.7506,-68.5145,1.85,87,75,3.09,CA,1693959399
62,yellowknife,62.456,-114.3525,16.34,55,75,2.57,CA,1693959399
63,kyzyl-suu,42.3414,78.0056,10.23,53,1,2.59,KG,1693959399
64,longyearbyen,78.2186,15.6401,4.91,87,75,2.57,SJ,1693959399
65,vel'sk,61.0701,42.0983,14.18,80,100,4.94,RU,1693959399
66,menongue,-14.6585,17.691,16.69,25,0,2.01,AO,1693959399
67,edinburgh of the seven seas,-37.0676,-12.3116,14.16,86,100,15.04,SH,1693959399
68,taroa,8.7058,171.2275,28.16,76,21,4.68,MH,1693959399
69,suntar,62.1444,117.6319,2.32,79,92,3.02,RU,1693959400
70,long beach,33.767,-118.1892,25.52,75,100,4.63,US,1693959341
71,souillac,-20.5167,57.5167,21.21,78,20,2.57,MU,1693959400
72,udachny,66.4167,112.4,0.25,100,82,6.58,RU,1693959400
73,tsiombe,-25.3,45.4833,19.75,71,0,2.09,MG,1693959400
74,nova sintra,14.8667,-24.7167,23.95,77,98,8.72,CV,1693959400
75,las lomitas,-24.7096,-60.593,19.0,64,99,1.4,AR,1693959400
76,wailua homesteads,22.0669,-159.378,28.44,72,0,4.12,US,1693959400
77,olonkinbyen,70.9221,-8.7187,6.49,88,53,9.51,SJ,1693959401
78,mejit,10.2753,170.8646,28.62,70,48,5.13,MH,1693959401
79,san patricio,28.017,-97.5169,32.88,55,0,6.35,US,1693959401
80,mushie,-3.0167,16.9,24.19,77,83,0.54,CD,1693959401
81,hirara,24.8,125.2833,29.15,79,75,2.57,JP,1693959401
82,coyhaique,-45.5752,-72.0662,1.52,88,100,1.77,CL,1693959401
83,petropavlovsk-kamchatsky,53.0452,158.6483,14.33,63,40,3.0,RU,1693959278
84,murzuq,25.9155,13.9184,29.58,24,1,5.03,LY,1693959401
85,belyy yar,53.6039,91.3903,10.94,87,0,3.0,RU,1693959401
86,port elizabeth,-33.918,25.5701,12.27,65,9,8.07,ZA,1693959402
87,daru,-9.0763,143.2092,25.81,82,92,6.59,PG,1693959402
88,mawu,29.5923,107.3139,23.44,76,0,1.72,CN,1693959402
89,dunedin,-45.8742,170.5036,15.6,67,44,2.68,NZ,1693959377
90,tralee,52.2704,-9.7026,15.31,97,43,2.53,IE,1693959402
91,zhezqazghan,47.7833,67.7667,11.03,56,31,2.64,KZ,1693959402
92,hinton,53.4001,-117.5857,12.06,80,96,1.49,CA,1693959402
93,klyuchi,52.2667,79.1667,8.71,72,87,2.64,RU,1693959402
94,kirkland lake,48.1446,-80.0377,24.16,73,2,0.51,CA,1693959403
95,milan,45.4643,9.1895,20.28,75,0,1.03,IT,1693959206
96,la'ie,21.6477,-157.9253,30.98,66,99,2.68,US,1693959403
97,saint-jean-de-monts,46.7833,-2.0667,21.1,63,43,2.39,FR,1693959403
98,ilulissat,69.2167,-51.1,6.01,93,75,2.06,GL,1693959403
99,west island,-12.1568,96.8225,24.99,73,100,5.14,CC,1693959403
100,brooks,50.5834,-111.8851,22.99,41,12,5.14,CA,1693959403
101,choyr,46.3611,108.3611,19.71,38,40,2.93,MN,1693959403
102,ushuaia,-54.8,-68.3,0.81,69,20,2.06,AR,1693959185
103,anchorage,61.2181,-149.9003,16.74,72,40,3.6,US,1693959306
104,sao gabriel da cachoeira,-0.1303,-67.0892,26.83,57,21,1.27,BR,1693959404
105,livingston,55.9029,-3.5226,14.56,94,100,3.09,GB,1693959237
106,jamestown,42.097,-79.2353,25.8,69,0,1.54,US,1693959238
107,isangel,-19.55,169.2667,23.64,74,92,6.54,VU,1693959404
108,punta arenas,-53.15,-70.9167,0.62,86,30,6.5,CL,1693959318
109,papatowai,-46.5619,169.4708,16.17,57,79,0.97,NZ,1693959404
110,lompoc,34.6391,-120.4579,27.79,77,100,6.26,US,1693959404
111,nemuro,43.3236,145.575,16.89,98,100,5.47,JP,1693959404
112,khandud,36.9513,72.318,10.4,41,0,1.89,AF,1693959404
113,afaahiti,-17.75,-149.2833,26.93,89,100,10.63,PF,1693959404
114,kodiak,57.79,-152.4072,11.73,82,100,2.06,US,1693959405
115,noosa heads,-26.3833,153.15,25.19,67,75,1.4,AU,1693959405
116,port mathurin,-19.6833,63.4167,22.67,72,16,7.44,MU,1693959405
117,sinop,41.7711,34.8709,19.17,93,99,1.02,TR,1693959405
118,talnakh,69.4865,88.3972,2.34,76,56,0.32,RU,1693959405
119,anadyr,64.75,177.4833,6.28,65,40,9.83,RU,1693959405
120,sarkand,45.41,79.9186,12.35,41,31,2.95,KZ,1693959405
121,tandalti,13.0167,31.8667,24.91,70,67,1.16,SD,1693959405
122,alofi,-19.0595,-169.9187,24.94,83,75,2.57,NU,1693959324
123,letlhakane,-21.4167,25.5833,18.74,23,0,3.49,BW,1693959406
124,caraballeda,10.6112,-66.8522,27.04,78,41,4.63,VE,1693959406
125,hopelchen,19.7667,-89.85,32.52,43,30,0.5,MX,1693959406
126,bredasdorp,-34.5322,20.0403,6.12,84,6,3.86,ZA,1693959406
127,bodaybo,57.8506,114.1933,13.54,70,79,0.56,RU,1693959406
128,blackwater,-23.5833,148.8833,24.27,89,6,4.77,AU,1693959406
129,tolanaro,-25.0319,46.9987,18.44,92,3,4.04,MG,1693959406
130,richards bay,-28.783,32.0377,18.67,71,100,8.13,ZA,1693959406
131,hobyo,5.3505,48.5268,25.6,83,49,13.11,SO,1693959407
132,carnarvon,-24.8667,113.6333,18.22,69,12,8.36,AU,1693959142
133,agropoli,40.3469,14.9966,20.59,68,73,4.45,IT,1693959407
134,pisco,-13.7,-76.2167,19.03,82,0,7.72,PE,1693959407
135,smirnykh,49.75,142.8333,19.63,77,74,0.94,RU,1693959407
136,vilyuchinsk,52.9306,158.4028,15.15,61,37,2.51,RU,1693959140
137,okhotsk,59.3833,143.3,9.9,86,100,6.29,RU,1693959407
138,mount gambier,-37.8333,140.7667,12.62,61,39,5.55,AU,1693959407
139,kempsey,-31.0833,152.8333,22.19,32,0,1.34,AU,1693959407
140,juneau,58.3019,-134.4197,17.0,84,40,3.09,US,1693959332
141,nianzishan,47.5167,122.8833,18.99,78,14,1.92,CN,1693959408
142,karratha,-20.7377,116.8463,20.81,58,50,0.71,AU,1693959408
143,tazovsky,67.4667,78.7,4.06,89,13,2.35,RU,1693959408
144,sungailiat,-1.85,106.1333,26.64,79,100,4.32,ID,1693959408
145,thunder bay,48.4001,-89.3168,23.99,64,100,5.66,CA,1693959123
146,dadukou,26.5479,101.7054,21.46,83,72,0.56,CN,1693959408
147,lihue,21.9789,-159.3672,28.77,65,0,4.12,US,1693959365
148,pelabuhanratu,-6.9875,106.5514,22.92,81,70,2.11,ID,1693959408
149,sola,-13.8833,167.55,26.2,79,99,10.81,VU,1693959409
150,vila velha,-20.3297,-40.2925,24.97,87,75,4.63,BR,1693959409
151,colonia menno,-22.3667,-59.8167,19.77,62,100,3.9,PY,1693959409
152,flin flon,54.7682,-101.865,16.45,28,1,2.21,CA,1693959409
153,ola,59.5833,151.2833,11.55,68,96,4.38,RU,1693959409
154,bubaque,11.2833,-15.8333,26.8,82,96,10.17,GW,1693959409
155,crucecita,-28.95,-58.9833,11.92,68,1,3.65,AR,1693959409
156,hamilton,39.1834,-84.5333,29.33,71,0,3.09,US,1693959383
157,muynoq,43.7683,59.0214,18.08,63,58,3.55,UZ,1693959409
158,chibougamau,49.9168,-74.3659,22.79,78,0,2.06,CA,1693959409
159,fort st. john,56.2499,-120.8529,14.94,44,40,5.14,CA,1693959240
160,baker city,44.7749,-117.8344,24.77,48,75,5.14,US,1693959123
161,makarov,48.6333,142.8,17.56,90,44,1.1,RU,1693959410
162,el granada,37.5027,-122.4694,29.94,72,100,9.26,US,1693959410
163,akjoujt,19.6969,-14.4164,34.01,42,100,6.21,MR,1693959410
164,n'zeto,-7.2312,12.8666,21.73,92,59,0.97,AO,1693959410
165,angra do heroismo,38.65,-27.2167,21.73,81,20,2.68,PT,1693959410
166,kapa'a,22.0752,-159.319,29.18,72,0,4.12,US,1693959217
167,chegdomyn,51.1167,133.0167,11.93,63,99,0.75,RU,1693959410
168,steinbach,50.1667,8.5667,20.91,78,0,1.54,DE,1693959410
169,dudinka,69.4058,86.1778,2.57,78,79,1.84,RU,1693959411
170,geraldton,-28.7667,114.6,17.23,72,100,8.23,AU,1693959411
171,boa vista,2.8197,-60.6733,30.99,51,20,1.54,BR,1693959411
172,lospalos,-8.5186,127.0025,23.62,66,51,4.25,TL,1693959411
173,aswan,24.0934,32.907,31.6,21,1,3.91,EG,1693959411
174,susuman,62.7833,148.1667,9.61,46,95,0.87,RU,1693959411
175,coquimbo,-29.9533,-71.3436,12.85,94,0,1.03,CL,1693959411
176,kone,-21.0595,164.8658,25.95,62,100,2.92,NC,1693959411
177,san juan del sur,11.2529,-85.8705,27.37,82,67,5.49,NI,1693959412
178,puerto ayora,-0.7393,-90.3518,24.19,92,55,2.68,EC,1693959412
179,constantia,44.1833,28.65,20.39,60,81,7.29,RO,1693959348
180,new norfolk,-42.7826,147.0587,13.73,68,98,2.76,AU,1693959412
181,neka,36.6508,53.299,23.59,74,6,1.48,IR,1693959412
182,nola,40.922,14.5329,23.83,82,2,3.11,IT,1693959412
183,nalut,30.3333,10.85,22.61,51,2,4.72,LY,1693959412
184,nayudupet,13.9,79.9,26.49,80,100,2.87,IN,1693959413
185,turpan,42.9333,89.1667,24.5,31,99,0.64,CN,1693959413
186,motilla del palancar,39.5709,-1.9068,18.67,84,68,1.34,ES,1693959413
187,kodinsk,58.6881,99.1844,11.89,66,100,0.56,RU,1693959413
188,soufriere,13.8562,-61.0566,28.81,82,75,6.69,LC,1693959413
189,vanino,49.0869,140.2543,18.52,56,6,3.39,RU,1693959413
190,poso,-1.3959,120.7524,28.1,62,81,1.95,ID,1693959413
191,floro,61.5996,5.0328,8.04,93,11,2.57,NO,1693959290
192,hithadhoo,-0.6,73.0833,28.06,73,94,6.23,MV,1693959413
193,mahibadhoo,3.7833,72.9667,27.19,76,84,5.64,MV,1693959414
194,iargara,46.4275,28.4367,15.78,50,0,3.05,MD,1693959183
195,frontino,6.7801,-76.1288,19.38,98,83,0.67,CO,1693959414
196,port lincoln,-34.7333,135.8667,16.46,47,1,9.62,AU,1693959414
197,port alfred,-33.5906,26.891,13.05,67,13,10.37,ZA,1693959414
198,casilda,-33.0442,-61.1681,11.69,68,40,3.67,AR,1693959414
199,nuuk,64.1835,-51.7216,6.34,93,100,9.77,GL,1693959414
200,freetown,8.484,-13.2299,23.84,94,75,4.12,SL,1693959414
201,la sarre,48.8002,-79.1996,24.23,56,1,3.31,CA,1693959415
202,alice springs,-23.7,133.8833,23.75,20,0,3.09,AU,1693959328
203,kardla,58.9978,22.7492,13.36,66,49,5.99,EE,1693959415
204,recani,31.2846,-4.2688,28.7,23,85,4.77,MA,1693959415
205,karatuzskoye,53.6072,92.8667,9.13,93,22,1.58,RU,1693959415
206,metlili chaamba,32.2667,3.6333,31.52,25,0,3.09,DZ,1693959415
207,mgandu,-5.95,34.1333,19.27,54,37,2.96,TZ,1693959415
208,kingston,17.997,-76.7936,27.36,96,98,1.01,JM,1693959361
209,al qubbah,32.7616,22.2424,20.5,70,45,3.46,LY,1693959416
210,aripuana,-9.1667,-60.6333,27.54,32,5,0.19,BR,1693959416
211,nadudvar,47.4167,21.1667,15.12,60,1,3.18,HU,1693959416
212,kill devil hills,36.0307,-75.676,26.66,82,0,0.0,US,1693959360
213,ballina,-28.8667,153.5667,23.21,60,22,4.59,AU,1693959416
214,ta`u,-14.2336,-169.5144,26.93,69,97,6.62,AS,1693959416
215,ancud,-41.8697,-73.8203,9.1,90,100,9.98,CL,1693959416
216,sorong,-0.8833,131.25,26.67,82,44,4.57,ID,1693959416
217,iskateley,67.6803,53.1512,13.05,91,100,5.55,RU,1693959417
218,tofol,5.3248,163.0078,31.88,70,75,1.54,FM,1693959417
219,cooma,-36.2333,149.1333,12.68,27,0,3.62,AU,1693959417
220,akureyri,65.6835,-18.0878,13.96,58,0,5.66,IS,1693959417
221,broken hill,-31.95,141.4333,18.38,31,0,4.99,AU,1693959271
222,saipan,15.1355,145.701,29.39,84,75,3.09,MP,1693959417
223,utrik,11.2278,169.8474,28.4,75,100,5.82,MH,1693959417
224,moranbah,-22.0016,148.0466,26.48,29,0,5.99,AU,1693959417
225,manokwari,-0.8667,134.0833,26.77,78,57,0.1,ID,1693959417
226,kenai,60.5544,-151.2583,12.05,90,100,8.75,US,1693959418
227,ca mau,9.1769,105.15,25.98,89,100,1.62,VN,1693959418
228,acarau,-2.8856,-40.12,26.03,81,7,7.86,BR,1693959418
229,wainwright,52.839,-110.8572,17.21,41,49,5.87,CA,1693959418
230,brookings,44.3114,-96.7984,18.03,96,100,7.2,US,1693959418
231,verkhnevilyuysk,63.4453,120.3167,2.81,78,99,3.46,RU,1693959418
232,mantua,45.1667,10.7833,18.58,79,57,0.45,IT,1693959418
233,fayzabad,37.1166,70.58,16.11,46,0,0.39,AF,1693959419
234,greymouth,-42.4667,171.2,14.4,84,57,5.96,NZ,1693959419
235,nouadhibou,20.931,-17.0347,25.99,53,23,7.72,MR,1693959419
236,colonia,50.9333,6.95,21.01,71,0,2.06,DE,1693959219
237,fortuna,40.5982,-124.1573,21.07,70,20,6.69,US,1693959419
238,puerto baquerizo moreno,-0.9,-89.6,23.09,79,50,5.45,EC,1693959419
239,celestun,20.8667,-90.4,29.45,74,28,6.26,MX,1693959419
240,inari,68.906,27.0288,5.11,86,94,1.43,FI,1693959419
241,flying fish cove,-10.4217,105.6791,23.82,83,100,5.14,CX,1693959420
242,mek'ele,13.4967,39.4753,16.29,82,73,1.25,ET,1693959420
243,abu qurqas,27.9312,30.8384,29.42,24,0,1.61,EG,1693959420
244,pirallahi,40.4723,50.333,24.08,61,0,1.5,AZ,1693959420
245,pangai,-19.8,-174.35,25.06,69,20,4.12,TO,1693959420
246,bardai,11.65,7.2333,21.98,84,23,2.43,NG,1693959420
247,nishio,34.8667,137.05,28.38,73,95,2.95,JP,1693959420
248,kruisfontein,-34.0033,24.7314,8.47,74,23,4.56,ZA,1693959421
249,iwade,34.25,135.3167,29.16,94,100,0.23,JP,1693959421
250,nsanje,-16.92,35.262,22.86,65,0,1.87,MW,1693959421
251,ximeicun,24.9639,118.3794,26.18,91,96,1.77,CN,1693959421
252,panuco,22.05,-98.1667,31.1,58,2,6.98,MX,1693959421
253,tabas,33.5959,56.9244,29.07,18,1,0.93,IR,1693959421
254,la ronge,55.1001,-105.2842,15.14,41,75,2.57,CA,1693959422
255,rock forest,45.3702,-71.99,24.69,86,17,1.03,CA,1693959422
256,vilhena,-12.7406,-60.1458,26.13,45,83,1.07,BR,1693959373
257,la gomera,14.0833,-91.05,27.41,79,67,1.48,GT,1693959422
258,lubango,-14.9172,13.4925,16.38,39,0,1.52,AO,1693959422
259,road town,18.4167,-64.6167,29.05,70,20,2.06,VG,1693959249
260,walvis bay,-22.9575,14.5053,11.16,78,65,6.67,NA,1693959134
261,happy valley-goose bay,53.3168,-60.3315,20.17,52,75,1.03,CA,1693959422
262,ruteng,-8.6136,120.4721,18.77,72,64,1.1,ID,1693959422
263,reggane,26.7158,0.1714,37.63,16,75,5.54,DZ,1693959423
264,maintirano,-18.0667,44.0167,23.13,81,6,1.6,MG,1693959423
265,pocone,-16.2567,-56.6228,27.78,59,68,2.79,BR,1693959423
266,solikamsk,59.6196,56.7729,9.65,90,35,1.95,RU,1693959423
267,gijang,35.2442,129.2139,25.09,79,66,6.94,KR,1693959423
268,holualoa,19.6228,-155.9522,28.91,69,0,6.17,US,1693959243
269,puerto ayacucho,5.6639,-67.6236,26.02,85,46,2.17,VE,1693959423
270,tura,25.5198,90.2201,24.73,91,78,1.49,IN,1693959423
271,neiafu,-18.65,-173.9833,25.38,73,40,3.6,TO,1693959424
272,luganville,-15.5333,167.1667,26.06,83,98,7.85,VU,1693959424
273,arno,60.1167,18.6333,14.88,71,62,5.66,SE,1693959424
274,sinabang,2.4803,96.3801,24.88,90,100,4.79,ID,1693959424
275,howrah,22.5892,88.3103,28.0,94,75,2.06,IN,1693959424
276,mersa matruh,31.3525,27.2453,26.37,70,0,6.73,EG,1693959425
277,jimbolia,45.7914,20.7172,16.77,57,0,3.18,RO,1693959425
278,jianshui,23.6363,102.8264,18.57,93,28,1.54,CN,1693959425
279,queenstown,-31.8976,26.8753,3.59,51,47,2.56,ZA,1693959311
280,vorgashor,67.5833,63.95,8.16,68,59,3.78,RU,1693959425
281,general jose de san martin,-26.5374,-59.3416,15.27,83,100,2.41,AR,1693959425
282,gizo,-8.103,156.8419,28.16,77,90,3.6,SB,1693959425
283,rizhao,35.4275,119.4553,24.26,79,2,2.7,CN,1693959425
284,cabo san lucas,22.8909,-109.9124,35.9,66,0,6.69,MX,1693959129
285,revda,56.801,59.9303,5.49,91,10,0.99,RU,1693959426
286,ust-tsilma,65.441,52.1498,12.91,88,100,3.22,RU,1693959426
287,manacapuru,-3.2997,-60.6206,28.86,44,15,1.22,BR,1693959426
288,zefta,30.7142,31.2442,23.76,68,0,3.51,EG,1693959426
289,ghat,24.9647,10.1728,32.99,17,1,4.22,LY,1693959426
290,chajari,-30.7505,-57.9796,11.36,65,19,3.64,AR,1693959426
291,atafu village,-8.5421,-172.5159,28.38,78,5,7.96,TK,1693959427
292,chapaev,50.2,51.1667,20.11,42,100,2.51,KZ,1693959427
293,rongelap,11.1635,166.8941,28.38,78,90,5.86,MH,1693959427
294,enriquillo,17.9,-71.2333,25.82,81,34,2.99,DO,1693959427
295,saint-philippe,-21.3585,55.7679,19.77,75,29,3.71,RE,1693959427
296,taoudenni,22.6783,-3.9836,31.6,47,82,4.05,ML,1693959427
297,kirakira,-10.4544,161.9205,28.42,78,55,6.45,SB,1693959428
298,hohhot,40.8106,111.6522,19.16,55,0,3.0,CN,1693959428
299,malindi,-3.2175,40.1191,24.63,84,65,6.1,KE,1693959428
300,nagqu,31.5,92.0,0.76,66,83,1.94,CN,1693959428
301,nuku'alofa,-21.1333,-175.2,25.19,65,20,6.17,TO,1693959428
302,uturoa,-16.7333,-151.4333,25.02,83,85,10.6,PF,1693959428
303,santana,-0.0583,-51.1817,27.1,83,0,1.03,BR,1693959187
304,sao joaquim,-28.2939,-49.9317,7.81,95,73,1.44,BR,1693959309
305,tyukhtet,56.5389,89.3011,8.76,97,39,2.5,RU,1693959429
306,smiths falls,44.9001,-76.0161,27.18,76,0,2.68,CA,1693959429
307,roma,43.2128,-75.4557,26.08,84,0,1.54,US,1693959308
308,arraial do cabo,-22.9661,-42.0278,21.26,91,97,11.33,BR,1693959429
309,serhetabat,35.2799,62.3438,17.09,22,0,1.06,TM,1693959429
310,georgetown,5.4112,100.3354,26.64,89,20,1.54,MY,1693959213
311,turkmenbasy,40.0222,52.9552,21.43,26,0,3.09,TM,1693959429
312,callao,-12.0667,-77.15,20.95,77,100,6.69,PE,1693959429
313,bilibino,68.0546,166.4372,2.64,63,97,3.9,RU,1693959429
314,mandla,22.6,80.3833,23.26,95,100,0.96,IN,1693959430
315,baoqing,46.3317,132.2111,17.26,68,18,1.83,CN,1693959430
316,luanda,-8.8368,13.2343,23.0,83,75,2.06,AO,1693959211
317,dumangas,10.825,122.713,27.39,82,99,1.38,PH,1693959430
318,quepos,9.4236,-84.1652,27.05,83,55,0.65,CR,1693959430
319,nasice,45.4886,18.0878,17.08,85,2,1.97,HR,1693959430
320,antsiranana,-12.2787,49.2917,22.26,75,1,6.22,MG,1693959430
321,estacion santa engracia,24.0159,-99.2015,37.06,32,3,7.39,MX,1693959431
322,lebu,-37.6167,-73.65,11.89,95,100,4.0,CL,1693959431
323,igrim,63.1906,64.4162,7.23,67,6,1.34,RU,1693959431
324,cockburn town,21.4612,-71.1419,29.45,72,66,0.31,TC,1693959431
325,nikolayevsk-on-amure,53.1406,140.73,10.77,98,100,1.81,RU,1693959431
326,yongchuan,29.3514,105.8947,25.88,68,0,1.39,CN,1693959431
327,ungsang-nodongjagu,42.3578,130.4622,20.24,66,1,2.68,KP,1693959431
328,suzemka,52.3178,34.0689,12.31,70,66,1.12,RU,1693959431
329,careiro da varzea,-3.2003,-59.8119,32.34,37,41,1.43,BR,1693959432
330,sao vicente,-23.9631,-46.3919,21.1,26,100,0.45,BR,1693959231
331,ljusdal,61.8288,16.0913,8.97,71,1,3.41,SE,1693959432
332,saudarkrokur,65.7461,-19.6394,11.15,82,59,9.41,IS,1693959432
333,zaragoza,41.6561,-0.8773,25.01,59,0,4.12,ES,1693959306
334,banda aceh,5.5577,95.3222,25.83,75,100,2.87,ID,1693959432
335,plastun,44.7561,136.2939,19.96,47,0,4.44,RU,1693959432
336,beitbridge,-22.2167,30.0,20.84,35,0,0.78,ZW,1693959432
337,guayaramerin,-10.8368,-65.3614,29.92,40,68,1.62,BO,1693959432
338,shahecheng,36.9383,114.5058,24.62,77,9,1.54,CN,1693959433
339,djibouti,11.5,42.5,32.45,40,41,3.05,DJ,1693959290
340,mermoz boabab,14.7065,-17.4758,27.31,87,100,3.29,SN,1693959433
341,saint-louis du nord,19.9333,-72.7167,29.18,75,81,1.93,HT,1693959433
342,prado,-17.3411,-39.2208,23.48,85,71,4.08,BR,1693959433
343,rio grande,-32.035,-52.0986,9.06,72,2,4.36,BR,1693959408
344,portland,45.5234,-122.6762,24.73,50,20,4.12,US,1693958932
345,togur,58.3631,82.8265,9.98,98,100,3.3,RU,1693959434
346,syktyvkar,61.6764,50.8099,11.85,100,20,2.0,RU,1693959434
347,bakanas,44.8081,76.2772,16.93,46,9,2.44,KZ,1693959434
348,wum,6.3833,10.0667,18.4,96,100,1.04,CM,1693959434
349,alakurtti,66.9672,30.3491,7.83,86,95,1.45,RU,1693959434
350,morshansk,53.4435,41.8107,16.61,62,79,0.53,RU,1693959435
351,turuntayevo,52.2,107.6167,17.05,82,97,1.18,RU,1693959435
352,taltal,-25.4,-70.4833,17.54,69,43,3.22,CL,1693959436
353,solleftea,63.1667,17.2667,8.92,66,42,6.17,SE,1693959436
354,polyarnyy,69.1989,33.4478,7.78,83,88,4.61,RU,1693959436
355,egilsstadir,65.2653,-14.3948,10.95,66,0,2.57,IS,1693959436
356,shache,38.4167,77.2406,20.83,35,1,3.32,CN,1693959436
357,ascoli satriano,41.2061,15.5615,20.69,67,9,4.18,IT,1693959436
358,port de pollenca,39.9075,3.0814,25.8,67,0,3.37,ES,1693959192
359,garissa,-0.4536,39.6401,23.45,80,79,6.61,KE,1693959437
360,el alto,-4.2714,-81.2147,21.81,85,24,7.8,PE,1693959437
361,crane,31.3974,-102.3501,39.14,14,4,2.36,US,1693959437
362,seven pagodas,12.6264,80.1722,27.25,79,100,4.0,IN,1693959437
363,tanout,14.9709,8.8879,30.27,44,0,6.83,NE,1693959437
364,newman,37.3138,-121.0208,33.36,10,0,2.81,US,1693959437
365,baukau,51.5526,7.2042,22.88,67,38,1.69,DE,1693959438
366,terrace,54.5163,-128.6035,16.95,55,100,5.14,CA,1693959438
367,taldykorgan,45.0156,78.3739,13.29,44,12,1.96,KZ,1693959438
368,yasinya,48.2794,24.3604,9.58,83,0,0.62,UA,1693959438
369,port blair,11.6667,92.75,28.02,83,100,4.12,IN,1693959438
370,ribeira brava,32.65,-17.0667,24.35,82,100,2.81,PT,1693959438
371,dange,12.8513,5.3471,26.63,62,12,3.43,NG,1693959438
372,velingara,13.15,-14.1167,23.14,97,100,2.32,SN,1693959438
373,kailua-kona,19.6406,-155.9956,30.98,70,0,6.17,US,1693959438
374,amga,60.8953,131.9608,12.62,56,99,2.84,RU,1693959140
375,bambanglipuro,-7.95,110.2833,23.52,79,91,1.86,ID,1693959439
376,san juan de miraflores,-12.1629,-76.9635,20.09,79,51,3.04,PE,1693959439
377,george town,5.4112,100.3354,26.64,89,20,1.54,MY,1693959309
378,zdvinsk,54.7021,78.661,9.95,74,97,4.26,RU,1693959439
379,rudbar,30.15,62.6,24.63,19,0,4.02,AF,1693959439
380,tayzhina,53.6679,87.4362,9.81,98,87,2.13,RU,1693959440
381,tazacorte,28.629,-17.9293,22.54,81,0,2.57,ES,1693959440
382,yatou,37.15,122.3833,24.84,79,0,3.98,CN,1693959440
383,boiling springs,35.0465,-81.9818,29.41,67,0,2.06,US,1693959440
384,coracora,-15.0333,-73.7833,12.47,35,94,0.55,PE,1693959440
385,san luis de la loma,17.2706,-100.8939,27.93,82,100,3.72,MX,1693959440
386,hilo,19.7297,-155.09,29.04,75,0,5.14,US,1693959441
387,mount isa,-20.7333,139.5,27.87,20,40,5.14,AU,1693959441
388,vrangel',42.7297,133.0839,21.03,58,1,5.58,RU,1693959441
389,hashtrud,37.4779,47.0508,20.04,31,0,0.83,IR,1693959441
390,bamboo flat,11.7,92.7167,28.05,83,100,4.12,IN,1693959441
391,monrovia,6.3005,-10.7969,24.87,82,64,3.92,LR,1693959441
392,fort bragg,35.139,-79.006,30.91,68,0,0.0,US,1693959441
393,keflavik,64.0049,-22.5624,11.95,93,100,10.29,IS,1693959442
394,kununurra,-15.7667,128.7333,26.99,54,44,3.09,AU,1693959442
395,pacific grove,36.6177,-121.9166,25.01,81,40,5.14,US,1693959442
396,bam,29.106,58.357,27.26,13,0,5.35,IR,1693959442
397,serowe,-22.3833,26.7167,18.41,27,1,1.6,BW,1693959442
398,novoderevyankovskaya,46.3231,38.7472,19.36,45,97,4.97,RU,1693959442
399,cannonvale,-20.2833,148.7,23.66,65,3,5.17,AU,1693959443
400,vila franca do campo,37.7167,-25.4333,21.23,83,38,7.38,PT,1693959443
401,vadso,70.0744,29.7487,6.49,87,34,2.57,NO,1693959443
402,pak phanang,8.3511,100.202,26.01,83,94,2.4,TH,1693959443
403,palikir - national government center,6.9248,158.1611,29.47,74,75,3.6,FM,1693959443
404,ulanhot,46.0833,122.0833,21.09,69,46,1.71,CN,1693959443
405,praia da vitoria,38.7333,-27.0667,21.53,83,20,11.15,PT,1693959443
406,genhe,50.7833,121.5167,15.01,71,35,1.41,CN,1693959443
407,marsa alam,25.0757,34.8918,31.27,47,3,4.53,EG,1693959443
408,kismayo,-0.3582,42.5454,24.91,88,97,6.65,SO,1693959444
409,cahul,45.9075,28.1944,16.81,48,3,4.24,MD,1693959444
410,haiku-pauwela,20.9219,-156.3051,29.01,61,40,9.26,US,1693959444
411,famagusta,35.125,33.95,26.16,87,0,0.99,CY,1693959444
412,sanctuary point,-35.1114,150.629,20.55,35,0,2.4,AU,1693959444
413,villanueva,15.3167,-88.0,27.24,89,75,2.57,HN,1693959444
414,namibe,-15.1961,12.1522,16.63,88,7,1.24,AO,1693959444
415,cochin,9.9399,76.2602,23.99,89,100,2.59,IN,1693959444
416,cozumel,20.5083,-86.9458,29.41,90,75,0.89,MX,1693959297
417,salinopolis,-0.6136,-47.3561,27.03,76,4,5.55,BR,1693959445
418,emporia,38.4039,-96.1817,33.27,27,0,6.17,US,1693959445
419,las tablas,7.7667,-80.2833,26.76,99,57,1.35,PA,1693959445
420,glace bay,46.1969,-59.957,18.1,97,100,7.2,CA,1693959445
421,chernyshevskiy,63.0128,112.4714,0.09,72,8,2.43,RU,1693959445
422,xinyi,22.373,110.9475,27.85,80,83,1.38,CN,1693959445
423,hasaki,35.7333,140.8333,27.39,85,100,3.21,JP,1693959446
424,luderitz,-26.6481,15.1594,12.0,58,79,8.0,NA,1693959446
425,katsuura,35.1333,140.3,28.01,82,100,8.37,JP,1693959446
426,laguna,38.421,-121.4238,33.95,31,0,1.54,US,1693959446
427,kerema,-7.9631,145.7785,26.49,86,68,3.81,PG,1693959446
428,nogliki,51.8333,143.1667,13.83,86,100,5.17,RU,1693959446
429,oroqen zizhiqi,50.5667,123.7167,15.46,57,58,0.62,CN,1693959446
430,weno,7.4515,151.8468,27.97,89,100,1.54,FM,1693959446
431,edeia,-17.3383,-49.9314,28.39,48,78,1.52,BR,1693959447
432,ormara,25.2088,64.6357,26.31,85,54,2.46,PK,1693959447
433,macusani,-14.0833,-70.4333,4.18,76,93,1.77,PE,1693959447
434,olinda,-8.0089,-34.8553,26.85,69,40,5.14,BR,1693959227
435,hovd,48.0056,91.6419,11.76,35,26,2.07,MN,1693959447
436,wynyard,-41.0,145.7167,11.47,84,73,6.08,AU,1693959312
437,tadine,-21.55,167.8833,22.54,75,100,6.76,NC,1693959447
438,bridgewater,44.3835,-64.5155,22.04,75,16,6.17,CA,1693959220
439,san francisco ixhuatan,16.3569,-94.4825,28.19,76,52,2.2,MX,1693959448
440,ganganagar,29.9167,73.8833,28.07,49,0,2.79,IN,1693959448
441,kargasok,59.0556,80.8572,10.82,97,75,3.35,RU,1693959448
442,san rafael,-34.6177,-68.3301,13.39,48,97,3.55,AR,1693959448
443,mourmelon-le-grand,49.1326,4.3642,19.36,82,0,1.54,FR,1693959448
444,bestobe,52.4994,73.0975,9.72,75,100,4.58,KZ,1693959448
445,sisimiut,66.9395,-53.6735,5.58,94,100,6.19,GL,1693959448
446,homer,59.6425,-151.5483,13.93,77,100,6.17,US,1693959449
447,kunda,25.7167,81.5167,25.63,90,100,2.82,IN,1693959449
448,springs,-26.25,28.4,15.16,45,93,4.12,ZA,1693959449
449,turbat,26.0023,63.044,26.44,82,5,1.05,PK,1693959449
450,lubang,13.8584,120.124,28.38,82,97,3.46,PH,1693959449
451,san mariano,7.5,126.0,26.21,80,100,0.42,PH,1693959449
452,sabang,5.8933,95.3214,27.58,74,100,4.39,ID,1693959435
453,itamaraju,-17.0392,-39.5311,20.51,96,49,1.64,BR,1693959450
454,monduli,-3.3,36.45,17.75,66,75,1.85,TZ,1693959450
455,timbuktu,16.7735,-3.0074,32.68,34,67,2.56,ML,1693959450
456,mugia,43.1041,-9.2179,18.28,79,80,5.91,ES,1693959450
457,sitka,57.0531,-135.33,16.94,63,0,2.06,US,1693959450
458,uglegorsk,49.0833,142.0333,17.91,86,69,4.43,RU,1693959450
459,saldanha,-33.0117,17.9442,10.19,66,1,1.53,ZA,1693959450
460,codrington,-38.2667,141.9667,12.37,64,52,8.31,AU,1693959451
461,tayshet,55.9342,98.0044,12.68,94,89,4.11,RU,1693959451
462,coahuayana de hidalgo,18.7,-103.6583,29.02,81,94,2.75,MX,1693959451
463,el calafate,-50.3408,-72.2768,-1.76,80,65,1.22,AR,1693959451
464,manas,42.7275,47.6785,21.65,88,1,1.0,RU,1693959451
465,remire-montjoly,4.9167,-52.2667,26.02,83,0,1.03,GF,1693959451
466,umarizal,-5.9906,-37.8144,27.57,45,10,7.06,BR,1693959451
467,brigantine,39.4101,-74.3646,26.67,85,100,0.89,US,1693959294
468,ostrogozhsk,50.8664,39.0756,15.47,74,61,2.5,RU,1693959451
469,tsumeb,-19.2333,17.7167,21.68,16,0,1.43,NA,1693959452
470,broome,42.2506,-75.833,25.82,89,47,1.6,US,1693959452
471,leon,21.1167,-101.6667,30.08,50,51,7.58,MX,1693959196
472,kyaikkami,16.08,97.5675,25.48,91,100,5.64,MM,1693959452
473,ust'-uda,54.1742,103.0304,13.96,85,93,3.85,RU,1693959452
474,port shepstone,-30.7414,30.455,16.83,48,78,8.35,ZA,1693959452
475,chone,-0.6833,-80.1,24.24,83,95,2.97,EC,1693959452
476,zhangjiakou,40.81,114.8794,21.73,74,0,0.38,CN,1693959452
477,sandnessjoen,66.0217,12.6316,10.29,72,89,8.89,NO,1693959453
478,saint-felicien,48.6501,-72.4491,24.38,83,20,1.03,CA,1693959453
479,adrar,20.5022,-10.0711,33.69,35,45,5.14,MR,1693959453
480,settat,33.0007,-7.6204,19.9,69,91,3.43,MA,1693959453
481,winnemucca,40.973,-117.7357,25.03,31,0,3.09,US,1693959453
482,atar,20.5169,-13.0499,34.68,40,67,7.94,MR,1693959453
483,vriddhachalam,11.5,79.3333,25.74,84,100,2.96,IN,1693959436
484,nar'yan-mar,67.6713,53.087,13.11,91,100,5.53,RU,1693959453
485,vallenar,-28.5708,-70.7581,19.09,35,93,1.33,CL,1693959453
486,enewetak,11.3474,162.3373,28.82,73,100,1.23,MH,1693959454
487,kerikeri,-35.2268,173.9474,16.62,94,19,2.74,NZ,1693959454
488,caluula,11.9661,50.7569,28.74,73,37,2.61,SO,1693959454
489,leninskiy,54.2781,37.4558,12.52,67,86,2.79,RU,1693959454
490,naberezhnyye chelny,55.7561,52.4289,13.49,66,80,0.77,RU,1693959454
491,tuxpan,19.55,-103.4,22.48,93,94,2.11,MX,1693959330
492,palasa,18.7667,84.4167,25.8,87,97,1.88,IN,1693959454
493,kurchatov,51.6601,35.6521,11.23,68,28,1.56,RU,1693959454
494,el colorado,-26.3081,-59.3729,15.52,82,99,2.76,AR,1693959455
495,nadi,-17.8,177.4167,30.0,54,75,2.57,FJ,1693959455
496,pita,10.8333,-12.5833,21.95,98,79,0.89,GN,1693959455
497,oltinko'l,40.8011,72.1634,17.83,37,1,0.91,UZ,1693959455
498,fraserburgh,57.6874,-2.0184,14.13,97,59,5.41,GB,1693959455
499,vorkuta,67.5,64.0,8.38,67,53,3.66,RU,1693959455
500,rampachodavaram,17.45,81.7667,25.95,96,100,1.33,IN,1693959455
501,lazaro cardenas,17.9583,-102.2,27.72,83,100,2.55,MX,1693959455
502,lembeni,-3.7833,37.6167,19.18,74,15,1.51,TZ,1693959456
503,alexandria,31.2156,29.9553,26.95,73,0,4.95,EG,1693959456
504,lakkha nevre,43.6103,45.2454,23.53,86,13,0.15,RU,1693959456
505,dhuusamarreeb,5.535,46.3861,25.01,73,68,10.43,SO,1693959456
506,lhuentse,27.6679,91.1839,19.22,86,42,1.65,BT,1693959456
507,ad dawadimi,24.5077,44.3924,25.64,12,0,2.05,SA,1693959456
508,caleta de carquin,-11.0925,-77.6267,19.39,83,48,5.16,PE,1693959439
509,prince rupert,54.3161,-130.3201,14.05,89,100,6.17,CA,1693959389
510,vikulovo,56.8167,70.6107,9.15,94,100,4.74,RU,1693959456
511,qamdo,31.1667,97.2333,5.04,82,95,1.11,CN,1693959456
512,merizo village,13.2658,144.6691,31.31,83,93,1.93,GU,1693959457
513,meldorf,54.0918,9.0687,18.12,82,50,2.97,DE,1693959457
514,cabedelo,-6.9811,-34.8339,24.37,82,8,7.73,BR,1693959457
515,cidade velha,14.9167,-23.6167,27.26,74,40,5.66,CV,1693959457
516,dryden,49.7833,-92.7503,14.16,88,100,5.66,CA,1693959457
517,lagos,6.5833,3.75,25.18,95,93,1.32,NG,1693959300
518,canete,-37.8,-73.4,10.5,98,100,2.91,CL,1693959457
519,bataipora,-22.2953,-53.2711,21.05,56,79,2.3,BR,1693959458
520,bodo,67.28,14.405,10.02,85,100,12.35,NO,1693959458
521,iquique,-20.2208,-70.1431,19.02,84,15,1.71,CL,1693959238
522,karungdong,5.8844,121.263,28.4,74,94,2.27,PH,1693959458
523,murghob,38.1702,73.9667,6.13,34,0,1.0,TJ,1693959458
524,paithan,19.4833,75.3833,24.01,76,80,6.0,IN,1693959458
525,pangoa,-12.1167,-73.0,20.32,95,82,1.23,PE,1693959458
526,fale old settlement,-9.3852,-171.2468,27.99,79,27,8.39,TK,1693959459
527,yazykovo,55.2199,56.1353,11.15,93,86,0.74,RU,1693959459
528,nago,26.5881,127.9761,30.25,70,36,3.73,JP,1693959459
529,kalamata,37.0389,22.1142,20.62,81,67,2.06,GR,1693959459
530,copala,16.65,-98.9833,27.72,79,100,2.03,MX,1693959459
531,castillos,-34.1667,-53.8333,5.38,77,15,2.52,UY,1693959459
532,orkney,-26.9802,26.6727,7.58,34,93,2.97,ZA,1693959459
533,kabalo,-6.05,26.9167,23.77,76,3,1.49,CD,1693959459
534,horta,38.5333,-28.6333,21.68,78,68,1.79,PT,1693959460
535,dulovo,43.8167,27.15,18.08,54,75,4.11,BG,1693959460
536,zhangjiakou shi xuanhua qu,40.6103,115.0447,22.84,71,0,0.36,CN,1693959460
537,wotje,9.4543,170.2367,28.35,76,25,5.35,MH,1693959460
538,vila do maio,15.1333,-23.2167,27.44,78,100,7.26,CV,1693959460
539,port arthur,38.8,121.2667,25.12,67,0,6.85,CN,1693959292
540,antonio enes,-16.2325,39.9086,22.47,84,5,2.48,MZ,1693959460
541,cole harbour,44.6724,-63.4751,20.55,83,76,8.23,CA,1693959461
542,carutapera,-1.195,-46.02,26.13,77,3,3.75,BR,1693959461
543,pontes e lacerda,-15.2261,-59.3353,26.46,67,85,2.19,BR,1693959461
544,yanam,16.7333,82.2167,24.46,97,100,3.62,IN,1693959461
545,thinadhoo,0.5333,72.9333,28.23,73,88,5.1,MV,1693959461
546,eydhafushi,5.1033,73.0708,27.23,78,100,7.06,MV,1693959461
547,touros,-5.1989,-35.4608,24.86,79,35,6.85,BR,1693959461
548,capao da canoa,-29.7456,-50.0097,13.74,72,76,2.55,BR,1693959462
549,kabo,7.6994,18.629,21.3,97,99,1.19,CF,1693959462
550,east florence,34.8095,-87.6495,29.5,65,0,2.57,US,1693959462
551,guarapari,-20.6667,-40.4975,24.38,92,31,4.45,BR,1693959462
552,buchanan,5.8808,-10.0467,24.62,88,60,2.67,LR,1693959462
553,island harbour,50.724,-1.2758,17.63,83,22,0.1,GB,1693959462
554,xining,36.6167,101.7667,16.16,76,45,0.61,CN,1693959462
555,pont rouge,48.8833,-72.0825,24.16,78,25,2.17,CA,1693959463
556,jutai,-5.1833,-68.9,27.79,41,25,0.89,BR,1693959463
557,kuta,-8.7233,115.1723,25.0,94,40,4.12,ID,1693959463
558,mahbubnagar,16.7333,77.9833,21.89,94,100,2.35,IN,1693959463
559,san sebastian de la gomera,28.0916,-17.1133,23.2,78,0,0.51,ES,1693959463
560,weligama,5.9667,80.4167,25.36,89,95,3.87,LK,1693959463
561,syumsi,57.1111,51.6149,11.91,92,10,0.79,RU,1693959463
562,salalah,17.0151,54.0924,26.05,83,0,2.06,OM,1693959464
563,louga,58.7372,29.8453,15.49,85,31,4.73,RU,1693959464
564,necochea,-38.5473,-58.7368,4.65,74,47,4.22,AR,1693959256
565,severobaykal'sk,55.65,109.3167,13.08,68,100,1.97,RU,1693959464
566,okha,53.5739,142.9478,14.26,83,82,7.49,RU,1693959464
567,male,4.1748,73.5089,27.42,75,97,6.11,MV,1693959464
568,monze,-16.2833,27.4833,18.9,39,0,1.17,ZM,1693959464
569,wenchang,30.904,118.4887,25.98,85,8,3.81,CN,1693959464
